{
  "nodes": [
    {
      "id": "n_e9f29dc6-684c-41d2-878b-e30a2466caae",
      "name": "二条御所",
      "slug": "new-castle",
      "region": "畿内",
      "country": "01",
      "district": "02",
      "type": "1",
      "lat": 35.01875,
      "lng": 135.75891,
      "gameId": "01021001"
    },
    {
      "id": "n_ab3d0ea9-d96f-42b1-87d0-2ec911c909b7",
      "name": "飯盛山城",
      "slug": "new-castle",
      "region": "畿内",
      "country": "03",
      "district": "03",
      "type": "1",
      "lat": 34.72634,
      "lng": 135.65358,
      "gameId": "03031001"
    },
    {
      "id": "n_ce047211-c24d-482b-8e3c-87482cfbb51b",
      "name": "信貴山城",
      "slug": "new-castle",
      "region": "畿内",
      "country": "02",
      "district": "03",
      "type": "1",
      "lat": 34.61277,
      "lng": 135.66831,
      "gameId": "02031002"
    },
    {
      "id": "n_56765a8a-4b74-4126-9c13-b291197fc610",
      "name": "岸和田城",
      "slug": "new-castle",
      "region": "畿内",
      "country": "04",
      "district": "02",
      "type": "1",
      "lat": 34.45939,
      "lng": 135.36999,
      "gameId": "04021001"
    },
    {
      "id": "n_ff1e8504-cd57-4e07-aca9-ad88e67c5314",
      "name": "芥川山城",
      "slug": "new-castle",
      "region": "畿内",
      "country": "05",
      "district": "01",
      "type": "1",
      "lat": 34.88061,
      "lng": 135.58833,
      "gameId": "05011001"
    },
    {
      "id": "n_d6a2b4e9-551d-4e9f-aa14-1bc39ff03973",
      "name": "上野城",
      "slug": "new-castle",
      "region": "東海",
      "country": "06",
      "district": "01",
      "type": "1",
      "lat": 34.77019,
      "lng": 136.12713,
      "gameId": "06011001"
    },
    {
      "id": "n_1254ec4c-aed2-4049-849f-fdf958e9cbe6",
      "name": "大河内城",
      "slug": "new-castle",
      "region": "東海",
      "country": "07",
      "district": "10",
      "type": "1",
      "lat": 34.52749,
      "lng": 136.47213,
      "gameId": "07101001"
    },
    {
      "id": "n_9b39fdd5-f61f-43d5-8500-5da9dd01624e",
      "name": "鳥羽城",
      "slug": "new-castle",
      "region": "東海",
      "country": "08",
      "district": "01",
      "type": "1",
      "lat": 34.4813,
      "lng": 136.84384,
      "gameId": "08011001"
    },
    {
      "id": "n_743830b8-625d-4fd6-a700-9f5fc1978297",
      "name": "清州城",
      "slug": "new-castle",
      "region": "東海",
      "country": "09",
      "district": "02",
      "type": "1",
      "lat": 35.21675,
      "lng": 136.84338,
      "gameId": "09021001"
    },
    {
      "id": "n_4bbd6cf4-890a-4ca8-b76d-9c56afa504cc",
      "name": "岡崎城",
      "slug": "new-castle",
      "region": "東海",
      "country": "10",
      "district": "01",
      "type": "1",
      "lat": 34.95632,
      "lng": 137.15881,
      "gameId": "10011001"
    },
    {
      "id": "n_f1c8e879-bc85-451f-9e90-108770ba53f9",
      "name": "引馬城",
      "slug": "new-castle",
      "region": "東海",
      "country": "11",
      "district": "10",
      "type": "1",
      "lat": 34.71173,
      "lng": 137.72496,
      "gameId": "11101001"
    },
    {
      "id": "n_9b730040-ea53-47f3-9080-688ad4e66d05",
      "name": "今川館",
      "slug": "new-castle",
      "region": "東海",
      "country": "12",
      "district": "04",
      "type": "1",
      "lat": 34.97767,
      "lng": 138.38527,
      "gameId": "12041001"
    },
    {
      "id": "n_2005d90e-a053-4023-bfe2-4a227e1d30e2",
      "name": "躑躅ヶ崎館",
      "slug": "new-castle",
      "region": "甲信",
      "country": "13",
      "district": "04",
      "type": "1",
      "lat": 35.6867,
      "lng": 138.57739,
      "gameId": "13041001"
    },
    {
      "id": "n_a30b2b56-4068-4649-84e8-0930ec2810c8",
      "name": "韮山城",
      "slug": "new-castle",
      "region": "東海",
      "country": "14",
      "district": "01",
      "type": "1",
      "lat": 35.05382,
      "lng": 138.95593,
      "gameId": "14011001"
    },
    {
      "id": "n_85040971-0a59-4ddf-8d0c-675202422103",
      "name": "小田原城",
      "slug": "new-castle",
      "region": "関東",
      "country": "15",
      "district": "07",
      "type": "1",
      "lat": 35.25105,
      "lng": 139.15342,
      "gameId": "15071001"
    },
    {
      "id": "n_ebdc2672-2e7e-4fa3-9623-9ba439c5c332",
      "name": "河越城",
      "slug": "new-castle",
      "region": "関東",
      "country": "16",
      "district": "08",
      "type": "1",
      "lat": 35.92425,
      "lng": 139.49145,
      "gameId": "16081001"
    },
    {
      "id": "n_c6a2b30a-5adb-4a1c-8703-32ec3be165c0",
      "name": "久留里城",
      "slug": "new-castle",
      "region": "関東",
      "country": "18",
      "district": "03",
      "type": "1",
      "lat": 35.28762,
      "lng": 140.08997,
      "gameId": "18031001"
    },
    {
      "id": "n_47c73f23-299b-4644-b448-7f8da4af9e08",
      "name": "古河御所",
      "slug": "new-castle",
      "region": "関東",
      "country": "19",
      "district": "01",
      "type": "1",
      "lat": 36.17628,
      "lng": 139.70059,
      "gameId": "19011001"
    },
    {
      "id": "n_b95a51b5-aefb-4d0e-8bd3-4679c498fbaf",
      "name": "太田城",
      "slug": "new-castle",
      "region": "関東",
      "country": "20",
      "district": "03",
      "type": "1",
      "lat": 36.54629,
      "lng": 140.5205,
      "gameId": "20031001"
    },
    {
      "id": "n_5bfd8dd2-91fc-4263-8f8a-cc88720ed1c6",
      "name": "観音寺城",
      "slug": "new-castle",
      "region": "東山",
      "country": "21",
      "district": "03",
      "type": "1",
      "lat": 35.14589,
      "lng": 136.15778,
      "gameId": "21031001"
    },
    {
      "id": "n_d27db22d-525a-4aca-95a8-dabf50a9bae0",
      "name": "稲葉山城",
      "slug": "new-castle",
      "region": "東山",
      "country": "22",
      "district": "10",
      "type": "1",
      "lat": 35.43392,
      "lng": 136.78205,
      "gameId": "22101001"
    },
    {
      "id": "n_349e2226-1ef5-4a8c-aa83-bf94f36a8cd9",
      "name": "松倉城",
      "slug": "new-castle",
      "region": "東山",
      "country": "23",
      "district": "01",
      "type": "1",
      "lat": 36.12618,
      "lng": 137.23404,
      "gameId": "23011001"
    },
    {
      "id": "n_11581f96-06d5-4013-8ef9-95c94e292d17",
      "name": "海津城",
      "slug": "new-castle",
      "region": "甲信",
      "country": "24",
      "district": "06",
      "type": "1",
      "lat": 36.56592,
      "lng": 138.19605,
      "gameId": "24061001"
    },
    {
      "id": "n_2c92d8d3-fa00-4f0d-a5b7-87097a9cc044",
      "name": "箕輪城",
      "slug": "new-castle",
      "region": "関東",
      "country": "25",
      "district": "06",
      "type": "1",
      "lat": 36.40413,
      "lng": 138.95192,
      "gameId": "25061001"
    },
    {
      "id": "n_44af5f50-80c9-4e89-936f-8d1a295bbe77",
      "name": "宇都宮城",
      "slug": "new-castle",
      "region": "関東",
      "country": "26",
      "district": "01",
      "type": "1",
      "lat": 36.55453,
      "lng": 139.88557,
      "gameId": "26011001"
    },
    {
      "id": "n_91f01cd5-36bd-419a-b52b-be1ddceb8267",
      "name": "黒川城",
      "slug": "new-castle",
      "region": "奥羽",
      "country": "27",
      "district": "01",
      "type": "1",
      "lat": 37.48718,
      "lng": 139.93037,
      "gameId": "27011001"
    },
    {
      "id": "n_6c3f1d73-a968-437f-8d3f-e3fcfe1bfafb",
      "name": "山形城",
      "slug": "new-castle",
      "region": "奥羽",
      "country": "28",
      "district": "03",
      "type": "1",
      "lat": 38.25547,
      "lng": 140.32811,
      "gameId": "28031001"
    },
    {
      "id": "n_ad34587f-86d6-4da7-8154-5b665c5e4a1b",
      "name": "後瀬山城",
      "slug": "new-castle",
      "region": "北陸",
      "country": "29",
      "district": "02",
      "type": "1",
      "lat": 35.48828,
      "lng": 135.73907,
      "gameId": "29021001"
    },
    {
      "id": "n_e651dde9-d4f1-424c-80d9-6c32d72177bf",
      "name": "一乗谷城",
      "slug": "new-castle",
      "region": "北陸",
      "country": "30",
      "district": "01",
      "type": "1",
      "lat": 35.999,
      "lng": 136.2953,
      "gameId": "30011001"
    },
    {
      "id": "n_183e8111-3eb7-41ab-a5f3-539ae9beedff",
      "name": "尾山御坊",
      "slug": "new-castle",
      "region": "北陸",
      "country": "31",
      "district": "02",
      "type": "1",
      "lat": 36.5656,
      "lng": 136.65958,
      "gameId": "31021001"
    },
    {
      "id": "n_0f45be1b-7b0b-4cbf-8f96-6185ac4437b5",
      "name": "七尾城",
      "slug": "new-castle",
      "region": "北陸",
      "country": "32",
      "district": "02",
      "type": "1",
      "lat": 37.00881,
      "lng": 136.98385,
      "gameId": "32021001"
    },
    {
      "id": "n_ce8df050-e5a7-47ab-bfda-a262c61328da",
      "name": "富山城",
      "slug": "new-castle",
      "region": "北陸",
      "country": "33",
      "district": "01",
      "type": "1",
      "lat": 36.693,
      "lng": 137.21041,
      "gameId": "33011001"
    },
    {
      "id": "n_57ba3295-dbf3-4915-b74c-0a559bee157e",
      "name": "春日山城",
      "slug": "new-castle",
      "region": "北陸",
      "country": "34",
      "district": "01",
      "type": "1",
      "lat": 37.14682,
      "lng": 138.20577,
      "gameId": "34011001"
    },
    {
      "id": "n_89f24790-1dd7-45fa-a4c5-1f46f73aaf61",
      "name": "雑太城",
      "slug": "new-castle",
      "region": "北陸",
      "country": "35",
      "district": "02",
      "type": "1",
      "lat": 37.97531,
      "lng": 138.36051,
      "gameId": "35021001"
    },
    {
      "id": "n_eac7cb8c-6fc2-42d2-a6fd-3a5ff379f56c",
      "name": "八木城",
      "slug": "new-castle",
      "region": "山陰",
      "country": "36",
      "district": "02",
      "type": "1",
      "lat": 35.06302,
      "lng": 135.52242,
      "gameId": "36021001"
    },
    {
      "id": "n_64975bce-c4e2-42ce-881f-570b86d6e2f2",
      "name": "弓木城",
      "slug": "new-castle",
      "region": "山陰",
      "country": "37",
      "district": "01",
      "type": "1",
      "lat": 35.56462,
      "lng": 135.14693,
      "gameId": "37011001"
    },
    {
      "id": "n_442c7246-a910-487b-9b53-ccfbaf92a961",
      "name": "竹田城",
      "slug": "new-castle",
      "region": "山陰",
      "country": "38",
      "district": "01",
      "type": "1",
      "lat": 35.30031,
      "lng": 134.82929,
      "gameId": "38011001"
    },
    {
      "id": "n_2ef6ccfb-20c1-4af4-b44d-78c5f340b29c",
      "name": "鳥取城",
      "slug": "new-castle",
      "region": "山陰",
      "country": "39",
      "district": "06",
      "type": "1",
      "lat": 35.51001,
      "lng": 134.24117,
      "gameId": "39061001"
    },
    {
      "id": "n_bd253eb4-28d1-4a0f-8660-79be1344bf9a",
      "name": "羽衣石城",
      "slug": "new-castle",
      "region": "山陰",
      "country": "40",
      "district": "01",
      "type": "1",
      "lat": 35.43742,
      "lng": 133.89868,
      "gameId": "40011001"
    },
    {
      "id": "n_0072a15c-72c7-42de-886d-0346a91665e5",
      "name": "月山富田城",
      "slug": "new-castle",
      "region": "山陰",
      "country": "41",
      "district": "09",
      "type": "1",
      "lat": 35.36085,
      "lng": 133.18527,
      "gameId": "41091001"
    },
    {
      "id": "n_7df494b6-17af-4b4e-83ae-7eacc2dcfa76",
      "name": "山吹城",
      "slug": "new-castle",
      "region": "山陰",
      "country": "42",
      "district": "03",
      "type": "1",
      "lat": 35.10394,
      "lng": 132.43066,
      "gameId": "42031001"
    },
    {
      "id": "n_00d2fe67-2b7c-4215-b634-93b664610331",
      "name": "国府尾城",
      "slug": "new-castle",
      "region": "山陰",
      "country": "43",
      "district": "04",
      "type": "1",
      "lat": 36.20642,
      "lng": 133.32005,
      "gameId": "43041001"
    },
    {
      "id": "n_37e63b3f-8a71-44d1-b63c-94af3b269c5b",
      "name": "置塩城",
      "slug": "new-castle",
      "region": "山陽",
      "country": "44",
      "district": "10",
      "type": "1",
      "lat": 34.92335,
      "lng": 134.68306,
      "gameId": "44101001"
    },
    {
      "id": "n_588ba128-9198-4057-86cb-2cb4e8f10aba",
      "name": "津山城",
      "slug": "new-castle",
      "region": "山陽",
      "country": "45",
      "district": "03",
      "type": "1",
      "lat": 35.06271,
      "lng": 134.0052,
      "gameId": "45031001"
    },
    {
      "id": "n_22788b31-8128-4c1c-b63d-3a401766556f",
      "name": "岡本城",
      "slug": "new-castle",
      "region": "関東",
      "country": "17",
      "district": "03",
      "type": "1",
      "lat": 35.04988,
      "lng": 139.83727,
      "gameId": "17031001"
    },
    {
      "id": "n_7626c86d-0539-448a-8003-d5316130689b",
      "name": "天神山城",
      "slug": "new-castle",
      "region": "山陽",
      "country": "46",
      "district": "05",
      "type": "1",
      "lat": 34.84558,
      "lng": 134.13219,
      "gameId": "46051001"
    },
    {
      "id": "n_314871c2-d93a-4984-93fa-0c6c258d101f",
      "name": "備中高松城",
      "slug": "new-castle",
      "region": "山陽",
      "country": "47",
      "district": "08",
      "type": "1",
      "lat": 34.69163,
      "lng": 133.82205,
      "gameId": "47081001"
    },
    {
      "id": "n_9dbad394-469b-4eda-a36e-8c7a8fc3f76b",
      "name": "神辺城",
      "slug": "new-castle",
      "region": "山陽",
      "country": "48",
      "district": "09",
      "type": "1",
      "lat": 34.53797,
      "lng": 133.38497,
      "gameId": "48091001"
    },
    {
      "id": "n_81bdebdc-83c9-4ba2-9553-9ca7fee2b435",
      "name": "吉田郡山城",
      "slug": "new-castle",
      "region": "山陽",
      "country": "49",
      "district": "08",
      "type": "1",
      "lat": 34.67362,
      "lng": 132.70957,
      "gameId": "49081001"
    },
    {
      "id": "n_f7011071-a9f8-4923-bf5f-dde93771e317",
      "name": "鴻ノ峰城",
      "slug": "new-castle",
      "region": "山陽",
      "country": "50",
      "district": "05",
      "type": "1",
      "lat": 34.1842,
      "lng": 131.4624,
      "gameId": "50051001"
    },
    {
      "id": "n_8195ef76-bd40-44dd-be18-e27807638e24",
      "name": "勝山城",
      "slug": "new-castle",
      "region": "山陽",
      "country": "51",
      "district": "01",
      "type": "1",
      "lat": 34.03194,
      "lng": 130.971,
      "gameId": "51011001"
    },
    {
      "id": "n_c628a01e-fe59-4fa6-bcec-ae01577b01fa",
      "name": "手取城",
      "slug": "new-castle",
      "region": "紀伊",
      "country": "52",
      "district": "06",
      "type": "1",
      "lat": 33.90228,
      "lng": 135.22914,
      "gameId": "52061001"
    },
    {
      "id": "n_eae2f12c-a5f7-47ea-831d-46b743ef3185",
      "name": "洲本城",
      "slug": "new-castle",
      "region": "四国",
      "country": "53",
      "district": "01",
      "type": "1",
      "lat": 34.33762,
      "lng": 134.90299,
      "gameId": "53011001"
    },
    {
      "id": "n_70abe564-c924-413a-9a28-138819379d77",
      "name": "勝瑞城",
      "slug": "new-castle",
      "region": "四国",
      "country": "54",
      "district": "04",
      "type": "1",
      "lat": 34.13083,
      "lng": 134.52241,
      "gameId": "54041001"
    },
    {
      "id": "n_a5a8e4e1-b15a-4363-8b09-19cbf381a2ca",
      "name": "十河城",
      "slug": "new-castle",
      "region": "四国",
      "country": "55",
      "district": "04",
      "type": "1",
      "lat": 34.26101,
      "lng": 134.10534,
      "gameId": "55041001"
    },
    {
      "id": "n_2f1a31e1-c881-4460-88c8-89278db5b608",
      "name": "湯築城",
      "slug": "new-castle",
      "region": "四国",
      "country": "56",
      "district": "09",
      "type": "1",
      "lat": 33.84809,
      "lng": 132.78677,
      "gameId": "56091001"
    },
    {
      "id": "n_e3c2a688-ba22-4015-b09c-d0d41fab1c0d",
      "name": "岡豊城",
      "slug": "new-castle",
      "region": "四国",
      "country": "57",
      "district": "03",
      "type": "1",
      "lat": 33.5948,
      "lng": 133.62252,
      "gameId": "57031001"
    },
    {
      "id": "n_004e11ff-27fb-4bc5-afe6-cef75b64898e",
      "name": "立花山城",
      "slug": "new-castle",
      "region": "九州",
      "country": "58",
      "district": "10",
      "type": "1",
      "lat": 33.67999,
      "lng": 130.46864,
      "gameId": "58101001"
    },
    {
      "id": "n_f700c8c2-6108-47f6-8544-59f05baca6cd",
      "name": "柳川城",
      "slug": "new-castle",
      "region": "九州",
      "country": "59",
      "district": "09",
      "type": "1",
      "lat": 33.16088,
      "lng": 130.40122,
      "gameId": "59091001"
    },
    {
      "id": "n_cb3fb7a7-31ab-4c53-a375-98223f72b58a",
      "name": "岩門城",
      "slug": "new-castle",
      "region": "九州",
      "country": "60",
      "district": "05",
      "type": "1",
      "lat": 33.4885,
      "lng": 130.42946,
      "gameId": "60051001"
    },
    {
      "id": "n_7a1c3694-081f-45b6-a767-d5c6e359414a",
      "name": "府内館",
      "slug": "new-castle",
      "region": "九州",
      "country": "61",
      "district": "03",
      "type": "1",
      "lat": 33.24036,
      "lng": 131.61141,
      "gameId": "61031001"
    },
    {
      "id": "n_dcbb2bf6-c719-412c-b498-48050fe67f0d",
      "name": "佐賀城",
      "slug": "new-castle",
      "region": "九州",
      "country": "62",
      "district": "05",
      "type": "1",
      "lat": 33.24535,
      "lng": 130.30284,
      "gameId": "62051001"
    },
    {
      "id": "n_b94778f3-b9c7-419c-af6e-f70c762f4204",
      "name": "隈本城",
      "slug": "new-castle",
      "region": "九州",
      "country": "63",
      "district": "08",
      "type": "1",
      "lat": 32.80527,
      "lng": 130.70546,
      "gameId": "63081001"
    },
    {
      "id": "n_cd92a547-c4ae-4df3-a3ca-af5a8eeb3d51",
      "name": "佐土原城",
      "slug": "new-castle",
      "region": "九州",
      "country": "64",
      "district": "03",
      "type": "1",
      "lat": 32.04768,
      "lng": 131.42245,
      "gameId": "64031001"
    },
    {
      "id": "n_b562e26c-3d35-4533-af11-81de31f32681",
      "name": "高山城",
      "slug": "new-castle",
      "region": "九州",
      "country": "65",
      "district": "06",
      "type": "1",
      "lat": 31.31683,
      "lng": 130.96652,
      "gameId": "65061001"
    },
    {
      "id": "n_cc1085c8-a0df-4c7f-b4df-06f3638067cc",
      "name": "内城",
      "slug": "new-castle",
      "region": "九州",
      "country": "66",
      "district": "01",
      "type": "1",
      "lat": 31.60564,
      "lng": 130.56254,
      "gameId": "66011001"
    },
    {
      "id": "n_0e71b19c-342c-46b3-bc44-11fe6f37ffe9",
      "name": "勝本城",
      "slug": "new-castle",
      "region": "九州",
      "country": "67",
      "district": "01",
      "type": "1",
      "lat": 33.84931,
      "lng": 129.69085,
      "gameId": "67011001"
    },
    {
      "id": "n_92d0b05e-145c-4ab0-8101-b41e09ff3fde",
      "name": "金石城",
      "slug": "new-castle",
      "region": "九州",
      "country": "68",
      "district": "02",
      "type": "1",
      "lat": 34.20431,
      "lng": 129.28589,
      "gameId": "68021001"
    },
    {
      "id": "n_9d3448b8-22b0-4fdc-9940-e0f656a22194",
      "name": "三戸城",
      "slug": "new-castle",
      "region": "奥羽",
      "country": "27",
      "district": "47",
      "type": "1",
      "lat": 40.38215,
      "lng": 141.26428,
      "gameId": "27471001"
    },
    {
      "id": "n_4a3e57cf-fe7c-4f4c-9572-b48b676baf0f",
      "name": "米沢城",
      "slug": "new-castle",
      "region": "奥羽",
      "country": "28",
      "district": "01",
      "type": "1",
      "lat": 37.90933,
      "lng": 140.10482,
      "gameId": "28011001"
    },
    {
      "id": "n_540abf08-d184-4e47-8c63-35e6f343daef",
      "name": "唐沢山城",
      "slug": "new-castle",
      "region": "関東",
      "country": "26",
      "district": "07",
      "type": "1",
      "lat": 36.3537,
      "lng": 139.60037,
      "gameId": "26071001"
    },
    {
      "id": "n_9591e507-bd29-4d3e-8a0e-26640c2b6b62",
      "name": "檜山城",
      "slug": "new-castle",
      "region": "奥羽",
      "country": "28",
      "district": "10",
      "type": "1",
      "lat": 40.1621,
      "lng": 140.12247,
      "gameId": "28101001"
    },
    {
      "id": "n_14f8bf04-6add-403f-bdfa-be4184270158",
      "name": "高遠城",
      "slug": "new-castle",
      "region": "甲信",
      "country": "24",
      "district": "03",
      "type": "1",
      "lat": 35.83322,
      "lng": 138.0627,
      "gameId": "24031001"
    },
    {
      "id": "n_d817b732-d71a-4886-9db9-d7f29cfc6c82",
      "name": "武蔵松山城",
      "slug": "new-castle",
      "region": "関東",
      "country": "16",
      "district": "13",
      "type": "1",
      "lat": 36.03659,
      "lng": 139.42053,
      "gameId": "16131001"
    },
    {
      "id": "n_12f8a2fc-2d2b-40a1-a3a0-858fafca1d6c",
      "name": "小谷城",
      "slug": "new-castle",
      "region": "東山",
      "country": "21",
      "district": "11",
      "type": "1",
      "lat": 35.45883,
      "lng": 136.27658,
      "gameId": "21111001"
    },
    {
      "id": "n_10842208-84b9-402e-87bd-9b9bb3a8d42a",
      "name": "比熊山城",
      "slug": "new-castle",
      "region": "山陽",
      "country": "48",
      "district": "13",
      "type": "1",
      "lat": 34.81962,
      "lng": 132.84083,
      "gameId": "48131001"
    },
    {
      "id": "n_5803c35b-f061-4fec-9a78-d9b5f131c2cd",
      "name": "日野江城",
      "slug": "new-castle",
      "region": "九州",
      "country": "62",
      "district": "11",
      "type": "1",
      "lat": 32.65984,
      "lng": 130.25269,
      "gameId": "62111001"
    },
    {
      "id": "n_894dce89-cb5f-4c88-a923-d6559c7fd1df",
      "name": "深志城",
      "slug": "new-castle",
      "region": "甲信",
      "country": "24",
      "district": "04",
      "type": "1",
      "lat": 36.23888,
      "lng": 137.96946,
      "gameId": "24041001"
    },
    {
      "id": "n_f84361cc-227b-4783-b27e-99514459c155",
      "name": "中継点",
      "slug": "",
      "region": "畿内",
      "country": "01",
      "district": "01",
      "type": "5",
      "lat": 31.79135,
      "lng": 131.03627,
      "gameId": "01015001"
    },
    {
      "id": "n_573f08eb-0d98-4cce-b033-a123d6f8cccf",
      "name": "中継点",
      "slug": "",
      "region": "畿内",
      "country": "01",
      "district": "01",
      "type": "5",
      "lat": 31.85202,
      "lng": 130.60792,
      "gameId": "01015002"
    },
    {
      "id": "n_5bfaa788-fca5-4cbd-a3ab-c7a6f8c212eb",
      "name": "中継点",
      "slug": "",
      "region": "畿内",
      "country": "01",
      "district": "01",
      "type": "5",
      "lat": 32.69716,
      "lng": 131.698,
      "gameId": "01015003"
    },
    {
      "id": "n_b7928646-05bc-4bd6-b3c1-04fb74b9d57b",
      "name": "中継点",
      "slug": "",
      "region": "畿内",
      "country": "01",
      "district": "01",
      "type": "5",
      "lat": 32.89797,
      "lng": 131.90394,
      "gameId": "01015004"
    },
    {
      "id": "n_43a012dd-7dc7-4105-ba89-906b77b69501",
      "name": "中継点",
      "slug": "",
      "region": "畿内",
      "country": "01",
      "district": "01",
      "type": "5",
      "lat": 33.29364,
      "lng": 131.39871,
      "gameId": "01015005"
    },
    {
      "id": "n_cda4b328-790c-459a-99ba-4f211aae4ccb",
      "name": "門司港",
      "slug": "",
      "region": "九州",
      "country": "60",
      "district": "01",
      "type": "7",
      "lat": 33.88744,
      "lng": 130.86836,
      "gameId": "60017001"
    },
    {
      "id": "n_34e551a1-b12d-4a16-bea5-9722ac29e7ef",
      "name": "中継点",
      "slug": "",
      "region": "畿内",
      "country": "01",
      "district": "01",
      "type": "5",
      "lat": 33.42895,
      "lng": 130.56946,
      "gameId": "01015007"
    },
    {
      "id": "n_994c8fff-697a-4d4f-a876-6d568a8ccb0d",
      "name": "中継点",
      "slug": "",
      "region": "畿内",
      "country": "01",
      "district": "01",
      "type": "5",
      "lat": 32.9625,
      "lng": 130.47061,
      "gameId": "01015008"
    },
    {
      "id": "n_ff994774-3a72-48f2-bbee-536a764f153c",
      "name": "中継点",
      "slug": "",
      "region": "畿内",
      "country": "01",
      "district": "01",
      "type": "5",
      "lat": 32.87952,
      "lng": 130.5777,
      "gameId": "01015009"
    },
    {
      "id": "n_6e798d04-a5c3-4351-b24c-796982ea6568",
      "name": "中継点",
      "slug": "",
      "region": "畿内",
      "country": "01",
      "district": "01",
      "type": "5",
      "lat": 32.53541,
      "lng": 130.6215,
      "gameId": "01015010"
    },
    {
      "id": "n_e2e8861a-78a6-4f2f-a81a-f8da5092f7ca",
      "name": "中継点",
      "slug": "",
      "region": "畿内",
      "country": "01",
      "district": "01",
      "type": "5",
      "lat": 32.26648,
      "lng": 130.50069,
      "gameId": "01015011"
    },
    {
      "id": "n_3cbce3f4-010d-43c0-9da5-55efd21f0d97",
      "name": "中継点",
      "slug": "",
      "region": "畿内",
      "country": "01",
      "district": "01",
      "type": "5",
      "lat": 32.07803,
      "lng": 130.31415,
      "gameId": "01015012"
    },
    {
      "id": "n_6e1963eb-b06c-4b35-9118-cbb958daf953",
      "name": "中継点",
      "slug": "",
      "region": "畿内",
      "country": "01",
      "district": "01",
      "type": "5",
      "lat": 31.88588,
      "lng": 130.31003,
      "gameId": "01015013"
    },
    {
      "id": "n_f9ad47e5-308e-4b19-abc8-be98908c741c",
      "name": "中継点",
      "slug": "",
      "region": "畿内",
      "country": "01",
      "district": "01",
      "type": "5",
      "lat": 31.81474,
      "lng": 130.3677,
      "gameId": "01015014"
    },
    {
      "id": "n_5b2559b3-00e6-4fae-be7d-b38b77a7e692",
      "name": "中継点",
      "slug": "",
      "region": "畿内",
      "country": "01",
      "district": "01",
      "type": "5",
      "lat": 31.75804,
      "lng": 130.58954,
      "gameId": "01015015"
    },
    {
      "id": "n_7a8df3f7-1a27-4102-af7e-a73123b0f759",
      "name": "中継点",
      "slug": "",
      "region": "畿内",
      "country": "01",
      "district": "01",
      "type": "5",
      "lat": 33.09632,
      "lng": 130.08324,
      "gameId": "01015016"
    },
    {
      "id": "n_a1cf9d8c-7be5-4093-ae67-dd90329611fc",
      "name": "中継点",
      "slug": "",
      "region": "畿内",
      "country": "01",
      "district": "01",
      "type": "5",
      "lat": 32.97202,
      "lng": 130.17385,
      "gameId": "01015017"
    },
    {
      "id": "n_21b8ce16-7dd1-454c-9d65-1b84ccea37b7",
      "name": "中継点",
      "slug": "",
      "region": "畿内",
      "country": "01",
      "district": "01",
      "type": "5",
      "lat": 32.86368,
      "lng": 130.07225,
      "gameId": "01015018"
    },
    {
      "id": "n_083c8c98-3c91-4617-bd31-6485f06dcfe2",
      "name": "中継点",
      "slug": "",
      "region": "畿内",
      "country": "01",
      "district": "01",
      "type": "5",
      "lat": 32.81523,
      "lng": 130.09971,
      "gameId": "01015019"
    },
    {
      "id": "n_4fa92b91-398b-4f9b-8d72-db311bc29be1",
      "name": "中継点",
      "slug": "",
      "region": "畿内",
      "country": "01",
      "district": "01",
      "type": "5",
      "lat": 32.85445,
      "lng": 130.28368,
      "gameId": "01015020"
    },
    {
      "id": "n_94ea8bd4-de4d-4ae3-a12a-225e6ef4feb1",
      "name": "中継点",
      "slug": "",
      "region": "畿内",
      "country": "01",
      "district": "01",
      "type": "5",
      "lat": 32.78061,
      "lng": 130.33585,
      "gameId": "01015021"
    },
    {
      "id": "n_d58a9c9f-815c-4a89-bf23-7feb8750bbe3",
      "name": "中継点",
      "slug": "",
      "region": "畿内",
      "country": "01",
      "district": "01",
      "type": "5",
      "lat": 32.69147,
      "lng": 130.33481,
      "gameId": "01015022"
    },
    {
      "id": "n_1dfcc446-3528-494f-8281-e96e3f39c4d3",
      "name": "中継点",
      "slug": "",
      "region": "畿内",
      "country": "01",
      "district": "01",
      "type": "5",
      "lat": 32.62038,
      "lng": 130.21537,
      "gameId": "01015023"
    },
    {
      "id": "n_5f4906e9-39f4-4730-a7b4-1206887affb4",
      "name": "中継点",
      "slug": "",
      "region": "畿内",
      "country": "01",
      "district": "01",
      "type": "5",
      "lat": 32.662,
      "lng": 130.14947,
      "gameId": "01015024"
    },
    {
      "id": "n_7b18fe74-4038-49f1-a9de-717b2a40b70f",
      "name": "中継点",
      "slug": "",
      "region": "畿内",
      "country": "01",
      "district": "01",
      "type": "5",
      "lat": 32.74114,
      "lng": 130.22704,
      "gameId": "01015025"
    },
    {
      "id": "n_0f8f0470-d403-4772-a933-493bbb3749ac",
      "name": "中継点",
      "slug": "",
      "region": "畿内",
      "country": "01",
      "district": "01",
      "type": "5",
      "lat": 32.80348,
      "lng": 130.19958,
      "gameId": "01015026"
    },
    {
      "id": "n_50c11bc6-de66-4173-aaff-91135272fec8",
      "name": "下関港",
      "slug": "",
      "region": "山陽",
      "country": "51",
      "district": "01",
      "type": "7",
      "lat": 33.94955,
      "lng": 130.93016,
      "gameId": "51017001"
    },
    {
      "id": "n_e5d4dfd2-db09-492d-8234-142643d241e6",
      "name": "中継点",
      "slug": "",
      "region": "畿内",
      "country": "01",
      "district": "01",
      "type": "5",
      "lat": 33.90746,
      "lng": 130.9257,
      "gameId": "01015006"
    },
    {
      "id": "n_bc2582c2-4a78-4cd9-8f29-fbc73003cfca",
      "name": "中継点",
      "slug": "",
      "region": "畿内",
      "country": "01",
      "district": "01",
      "type": "5",
      "lat": 33.93452,
      "lng": 130.94149,
      "gameId": "01015027"
    },
    {
      "id": "n_30c5faaa-10ce-4a87-840e-ee6284017bc7",
      "name": "中継点",
      "slug": "",
      "region": "畿内",
      "country": "01",
      "district": "01",
      "type": "5",
      "lat": 34.08802,
      "lng": 131.06394,
      "gameId": "01015028"
    },
    {
      "id": "n_6c0db49d-7ebe-4b3b-b255-257fb2bfd6fb",
      "name": "中継点",
      "slug": "",
      "region": "畿内",
      "country": "01",
      "district": "01",
      "type": "5",
      "lat": 33.99012,
      "lng": 131.18693,
      "gameId": "01015029"
    },
    {
      "id": "n_c3424ae4-411d-4bf0-9646-de19ed9c7476",
      "name": "中継点",
      "slug": "",
      "region": "畿内",
      "country": "01",
      "district": "01",
      "type": "5",
      "lat": 33.96742,
      "lng": 131.29181,
      "gameId": "01015030"
    },
    {
      "id": "n_b1163daf-d110-43fd-88dd-5d2f5f925486",
      "name": "中継点",
      "slug": "",
      "region": "畿内",
      "country": "01",
      "district": "01",
      "type": "5",
      "lat": 34.06529,
      "lng": 131.37831,
      "gameId": "01015031"
    },
    {
      "id": "n_2a100b35-8d30-4631-aec6-a76bbc254e07",
      "name": "中継点",
      "slug": "",
      "region": "畿内",
      "country": "01",
      "district": "01",
      "type": "5",
      "lat": 34.03913,
      "lng": 131.55679,
      "gameId": "01015032"
    },
    {
      "id": "n_613940bc-e71e-4b60-856a-34c57ab50474",
      "name": "中継点",
      "slug": "",
      "region": "畿内",
      "country": "01",
      "district": "01",
      "type": "5",
      "lat": 34.09145,
      "lng": 131.71193,
      "gameId": "01015033"
    },
    {
      "id": "n_547c1f84-c197-4262-9e9d-10221fe2ec24",
      "name": "中継点",
      "slug": "",
      "region": "畿内",
      "country": "01",
      "district": "01",
      "type": "5",
      "lat": 34.07667,
      "lng": 131.81489,
      "gameId": "01015034"
    },
    {
      "id": "n_94cf5337-f32a-48d6-81a0-7b307e5668c0",
      "name": "中継点",
      "slug": "",
      "region": "畿内",
      "country": "01",
      "district": "01",
      "type": "5",
      "lat": 33.97084,
      "lng": 131.95218,
      "gameId": "01015035"
    },
    {
      "id": "n_4c9b9ad9-1309-4382-9606-0030a61f13a4",
      "name": "中継点",
      "slug": "",
      "region": "畿内",
      "country": "01",
      "district": "01",
      "type": "5",
      "lat": 33.93781,
      "lng": 132.04966,
      "gameId": "01015036"
    },
    {
      "id": "n_916c338f-db28-41bc-9686-4e4397565bf2",
      "name": "中継点",
      "slug": "",
      "region": "畿内",
      "country": "01",
      "district": "01",
      "type": "5",
      "lat": 33.9993,
      "lng": 132.15126,
      "gameId": "01015037"
    },
    {
      "id": "n_556b70cc-9445-413c-995e-d99181bdb850",
      "name": "中継点",
      "slug": "",
      "region": "畿内",
      "country": "01",
      "district": "01",
      "type": "5",
      "lat": 34.11191,
      "lng": 132.16773,
      "gameId": "01015038"
    },
    {
      "id": "n_a423b339-9828-45df-944b-1d9cb6e33081",
      "name": "中継点",
      "slug": "",
      "region": "畿内",
      "country": "01",
      "district": "01",
      "type": "5",
      "lat": 34.23572,
      "lng": 132.19382,
      "gameId": "01015039"
    },
    {
      "id": "n_2efd2349-ca5c-49f4-9ba1-00c8fca5f276",
      "name": "中継点",
      "slug": "",
      "region": "畿内",
      "country": "01",
      "district": "01",
      "type": "5",
      "lat": 34.35142,
      "lng": 132.27619,
      "gameId": "01015040"
    },
    {
      "id": "n_6a351f76-13b3-4a63-b52f-6a7c849cd986",
      "name": "中継点",
      "slug": "",
      "region": "畿内",
      "country": "01",
      "district": "01",
      "type": "5",
      "lat": 34.45111,
      "lng": 132.43957,
      "gameId": "01015041"
    },
    {
      "id": "n_0ef2d0f9-be03-4c40-a873-090b29847cc1",
      "name": "中継点",
      "slug": "",
      "region": "畿内",
      "country": "01",
      "district": "01",
      "type": "5",
      "lat": 34.54389,
      "lng": 132.53842,
      "gameId": "01015042"
    },
    {
      "id": "n_5f64b50a-b520-42ec-9cdf-5c6f208db939",
      "name": "中継点",
      "slug": "",
      "region": "畿内",
      "country": "01",
      "district": "01",
      "type": "5",
      "lat": 34.7383,
      "lng": 132.99746,
      "gameId": "01015043"
    },
    {
      "id": "n_ce37d18a-8547-4d83-a3e5-bc07bc9c2f7b",
      "name": "中継点",
      "slug": "",
      "region": "畿内",
      "country": "01",
      "district": "01",
      "type": "5",
      "lat": 34.64686,
      "lng": 133.25145,
      "gameId": "01015044"
    },
    {
      "id": "n_310ef0fe-b4f8-456e-b66c-b4c6ba4b07c5",
      "name": "中継点",
      "slug": "",
      "region": "畿内",
      "country": "01",
      "district": "01",
      "type": "5",
      "lat": 34.51355,
      "lng": 131.53061,
      "gameId": "01015045"
    },
    {
      "id": "n_eec73744-7e0f-442c-8265-cf9ca81b5bba",
      "name": "中継点",
      "slug": "",
      "region": "畿内",
      "country": "01",
      "district": "01",
      "type": "5",
      "lat": 34.63565,
      "lng": 131.76949,
      "gameId": "01015046"
    },
    {
      "id": "n_361beb1e-b2c1-42a7-b1d8-e071f96884e8",
      "name": "中継点",
      "slug": "",
      "region": "畿内",
      "country": "01",
      "district": "01",
      "type": "5",
      "lat": 34.89055,
      "lng": 132.16489,
      "gameId": "01015047"
    },
    {
      "id": "n_4984d229-05b4-4302-9231-24223ccf96c2",
      "name": "中継点",
      "slug": "",
      "region": "畿内",
      "country": "01",
      "district": "01",
      "type": "5",
      "lat": 35.31737,
      "lng": 132.85135,
      "gameId": "01015048"
    },
    {
      "id": "n_88d288d3-68e6-4bdc-816e-d5e67d0282f7",
      "name": "中継点",
      "slug": "",
      "region": "畿内",
      "country": "01",
      "district": "01",
      "type": "5",
      "lat": 35.41702,
      "lng": 133.20739,
      "gameId": "01015049"
    },
    {
      "id": "n_a75e3d3f-8079-4d4e-861d-aa9e39fca2a1",
      "name": "中継点",
      "slug": "",
      "region": "畿内",
      "country": "01",
      "district": "01",
      "type": "5",
      "lat": 35.43827,
      "lng": 133.44986,
      "gameId": "01015050"
    },
    {
      "id": "n_73e973dc-e9ad-4844-a632-ed7a013e9fa2",
      "name": "中継点",
      "slug": "",
      "region": "畿内",
      "country": "01",
      "district": "01",
      "type": "5",
      "lat": 35.49642,
      "lng": 133.524,
      "gameId": "01015051"
    },
    {
      "id": "n_ecdb6952-dfc4-477d-a410-d6cc3709eace",
      "name": "中継点",
      "slug": "",
      "region": "畿内",
      "country": "01",
      "district": "01",
      "type": "5",
      "lat": 35.62151,
      "lng": 134.72118,
      "gameId": "01015052"
    },
    {
      "id": "n_06d851cf-41d8-4a4d-a6fd-b95736b1859e",
      "name": "中継点",
      "slug": "",
      "region": "畿内",
      "country": "01",
      "district": "01",
      "type": "5",
      "lat": 35.40695,
      "lng": 135.2676,
      "gameId": "01015053"
    },
    {
      "id": "n_47b66258-cf5d-45ee-960b-cc53401508b4",
      "name": "中継点",
      "slug": "",
      "region": "畿内",
      "country": "01",
      "district": "01",
      "type": "5",
      "lat": 34.98558,
      "lng": 135.64024,
      "gameId": "01015054"
    },
    {
      "id": "n_3d9045c3-0795-4ce9-8d57-f43828bc01a3",
      "name": "中継点",
      "slug": "",
      "region": "畿内",
      "country": "01",
      "district": "01",
      "type": "5",
      "lat": 34.97884,
      "lng": 135.7384,
      "gameId": "01015055"
    },
    {
      "id": "n_d485485c-0683-45bf-9595-415d8db24d5f",
      "name": "中継点",
      "slug": "",
      "region": "畿内",
      "country": "01",
      "district": "01",
      "type": "5",
      "lat": 34.90624,
      "lng": 135.73016,
      "gameId": "01015056"
    },
    {
      "id": "n_3efa7db3-bee0-46f3-b793-e19ee976dff7",
      "name": "中継点",
      "slug": "",
      "region": "畿内",
      "country": "01",
      "district": "01",
      "type": "5",
      "lat": 34.79696,
      "lng": 135.59493,
      "gameId": "01015057"
    },
    {
      "id": "n_a31df34d-4ac1-40dc-bcf5-eaf298f4a761",
      "name": "中継点",
      "slug": "",
      "region": "畿内",
      "country": "01",
      "district": "01",
      "type": "5",
      "lat": 34.67397,
      "lng": 135.59699,
      "gameId": "01015058"
    },
    {
      "id": "n_a95e0d4d-ea56-4673-bf03-fdaef0e003d1",
      "name": "中継点",
      "slug": "",
      "region": "畿内",
      "country": "01",
      "district": "01",
      "type": "5",
      "lat": 34.58812,
      "lng": 135.53658,
      "gameId": "01015059"
    },
    {
      "id": "n_4948900c-24a1-4f8f-bc41-95aa4f6637f6",
      "name": "中継点",
      "slug": "",
      "region": "畿内",
      "country": "01",
      "district": "01",
      "type": "5",
      "lat": 34.49821,
      "lng": 135.424,
      "gameId": "01015060"
    },
    {
      "id": "n_47efd6c8-a48c-4362-99c8-6f3f6770d0e1",
      "name": "中継点",
      "slug": "",
      "region": "畿内",
      "country": "01",
      "district": "01",
      "type": "5",
      "lat": 34.60975,
      "lng": 133.58912,
      "gameId": "01015061"
    },
    {
      "id": "n_a34306a9-aec9-4188-bbc5-9b8cda6553d7",
      "name": "中継点",
      "slug": "",
      "region": "畿内",
      "country": "01",
      "district": "01",
      "type": "5",
      "lat": 34.67301,
      "lng": 133.75524,
      "gameId": "01015062"
    },
    {
      "id": "n_78f4d9ce-f00d-4fb8-85d3-faa80f221bbb",
      "name": "中継点",
      "slug": "",
      "region": "畿内",
      "country": "01",
      "district": "01",
      "type": "5",
      "lat": 34.70913,
      "lng": 133.94882,
      "gameId": "01015063"
    },
    {
      "id": "n_46afb7fc-feea-4239-bf28-bf892d5c572a",
      "name": "中継点",
      "slug": "",
      "region": "畿内",
      "country": "01",
      "district": "01",
      "type": "5",
      "lat": 34.77795,
      "lng": 134.08886,
      "gameId": "01015064"
    },
    {
      "id": "n_b1b0841c-688d-4de9-a0e4-e19176ff0dc8",
      "name": "中継点",
      "slug": "",
      "region": "畿内",
      "country": "01",
      "district": "01",
      "type": "5",
      "lat": 34.80276,
      "lng": 134.16574,
      "gameId": "01015065"
    },
    {
      "id": "n_3f40546a-3568-48a3-98f1-4c5b7e131c41",
      "name": "中継点",
      "slug": "",
      "region": "畿内",
      "country": "01",
      "district": "01",
      "type": "5",
      "lat": 34.84094,
      "lng": 134.30623,
      "gameId": "01015066"
    },
    {
      "id": "n_a237e4b7-b9b2-46ba-b1a3-53d5adce9182",
      "name": "中継点",
      "slug": "",
      "region": "畿内",
      "country": "01",
      "district": "01",
      "type": "5",
      "lat": 34.85221,
      "lng": 134.46686,
      "gameId": "01015067"
    },
    {
      "id": "n_e0857097-52ef-4d57-88a2-916521281f3c",
      "name": "中継点",
      "slug": "",
      "region": "畿内",
      "country": "01",
      "district": "01",
      "type": "5",
      "lat": 34.8308,
      "lng": 134.58355,
      "gameId": "01015068"
    },
    {
      "id": "n_569b2909-1453-4684-81a2-96d764d38744",
      "name": "中継点",
      "slug": "",
      "region": "畿内",
      "country": "01",
      "district": "01",
      "type": "5",
      "lat": 34.82403,
      "lng": 134.7689,
      "gameId": "01015069"
    },
    {
      "id": "n_b6ed49f6-0572-4ef9-836b-87a253dafd3f",
      "name": "中継点",
      "slug": "",
      "region": "畿内",
      "country": "01",
      "district": "01",
      "type": "5",
      "lat": 34.75864,
      "lng": 134.89246,
      "gameId": "01015070"
    },
    {
      "id": "n_ca52ae9d-9a72-4d4c-8ef7-3655173cf9bc",
      "name": "中継点",
      "slug": "",
      "region": "畿内",
      "country": "01",
      "district": "01",
      "type": "5",
      "lat": 34.71238,
      "lng": 135.03799,
      "gameId": "01015071"
    },
    {
      "id": "n_4c6a73f7-f615-44c3-a5fd-b955460b1c9e",
      "name": "中継点",
      "slug": "",
      "region": "畿内",
      "country": "01",
      "district": "01",
      "type": "5",
      "lat": 34.72705,
      "lng": 135.25903,
      "gameId": "01015072"
    },
    {
      "id": "n_de7882d6-859d-49a6-8b4e-62660eb09c8a",
      "name": "中継点",
      "slug": "",
      "region": "畿内",
      "country": "01",
      "district": "01",
      "type": "5",
      "lat": 34.75638,
      "lng": 135.41691,
      "gameId": "01015073"
    },
    {
      "id": "n_6baf020d-2c84-4052-adea-47b3de6eb03b",
      "name": "中継点",
      "slug": "",
      "region": "畿内",
      "country": "01",
      "district": "01",
      "type": "5",
      "lat": 34.47722,
      "lng": 135.74818,
      "gameId": "01015074"
    },
    {
      "id": "n_98ddd6da-f73e-4099-865e-e42e86b82fa0",
      "name": "中継点",
      "slug": "",
      "region": "畿内",
      "country": "01",
      "district": "01",
      "type": "5",
      "lat": 34.35603,
      "lng": 135.69464,
      "gameId": "01015075"
    },
    {
      "id": "n_9c9fab1c-3ed4-4976-a7cf-779902e0a83b",
      "name": "中継点",
      "slug": "",
      "region": "畿内",
      "country": "01",
      "district": "01",
      "type": "5",
      "lat": 34.23466,
      "lng": 135.1798,
      "gameId": "01015076"
    },
    {
      "id": "n_988da362-ccce-4a8c-8da7-24adc19e722b",
      "name": "中継点",
      "slug": "",
      "region": "畿内",
      "country": "01",
      "district": "01",
      "type": "5",
      "lat": 34.0448,
      "lng": 135.22085,
      "gameId": "01015077"
    },
    {
      "id": "n_554c5a72-649c-444a-8055-2c0389e456f3",
      "name": "中継点",
      "slug": "",
      "region": "畿内",
      "country": "01",
      "district": "01",
      "type": "5",
      "lat": 33.99136,
      "lng": 133.70008,
      "gameId": "01015078"
    },
    {
      "id": "n_4871c3dd-9243-4c21-860b-853c790b8120",
      "name": "中継点",
      "slug": "",
      "region": "畿内",
      "country": "01",
      "district": "01",
      "type": "5",
      "lat": 34.17557,
      "lng": 133.76323,
      "gameId": "01015079"
    },
    {
      "id": "n_8545101f-c40e-4c17-9259-e5f6ca2b1e1e",
      "name": "中継点",
      "slug": "",
      "region": "畿内",
      "country": "01",
      "district": "01",
      "type": "5",
      "lat": 33.80446,
      "lng": 134.6062,
      "gameId": "01015080"
    },
    {
      "id": "n_43054c94-0415-4cb1-919c-d8aeac92618d",
      "name": "中継点",
      "slug": "",
      "region": "畿内",
      "country": "01",
      "district": "01",
      "type": "5",
      "lat": 33.61487,
      "lng": 134.33161,
      "gameId": "01015081"
    },
    {
      "id": "n_8b32e2fc-45d2-4e6f-a675-dc3052661f81",
      "name": "中継点",
      "slug": "",
      "region": "畿内",
      "country": "01",
      "district": "01",
      "type": "5",
      "lat": 33.36985,
      "lng": 134.18334,
      "gameId": "01015082"
    },
    {
      "id": "n_0139bfb8-4635-40f4-b363-753cef4ac5ac",
      "name": "中継点",
      "slug": "",
      "region": "畿内",
      "country": "01",
      "district": "01",
      "type": "5",
      "lat": 33.41341,
      "lng": 134.08174,
      "gameId": "01015083"
    },
    {
      "id": "n_8e15a0f3-bf66-4e6b-a041-46716e6a0493",
      "name": "中継点",
      "slug": "",
      "region": "畿内",
      "country": "01",
      "district": "01",
      "type": "5",
      "lat": 33.57599,
      "lng": 133.82638,
      "gameId": "01015084"
    },
    {
      "id": "n_ac920334-7a1e-4df6-9a24-7be68eee2d52",
      "name": "中継点",
      "slug": "",
      "region": "畿内",
      "country": "01",
      "district": "01",
      "type": "5",
      "lat": 33.37443,
      "lng": 133.21956,
      "gameId": "01015085"
    },
    {
      "id": "n_1ae12102-e1b3-4289-ac5a-e68456233b45",
      "name": "中継点",
      "slug": "",
      "region": "畿内",
      "country": "01",
      "district": "01",
      "type": "5",
      "lat": 33.15862,
      "lng": 133.08501,
      "gameId": "01015086"
    },
    {
      "id": "n_0d801cd8-f46d-4959-a1b0-9a62fdcea9a5",
      "name": "中継点",
      "slug": "",
      "region": "畿内",
      "country": "01",
      "district": "01",
      "type": "5",
      "lat": 32.89847,
      "lng": 132.9285,
      "gameId": "01015087"
    },
    {
      "id": "n_12861983-cb97-44d4-8a8b-4f1e1671e2af",
      "name": "中継点",
      "slug": "",
      "region": "畿内",
      "country": "01",
      "district": "01",
      "type": "5",
      "lat": 33.01137,
      "lng": 132.59076,
      "gameId": "01015088"
    },
    {
      "id": "n_fad5d811-c0e4-4753-98e7-8c4a13dc8bb9",
      "name": "中継点",
      "slug": "",
      "region": "畿内",
      "country": "01",
      "district": "01",
      "type": "5",
      "lat": 33.28266,
      "lng": 132.55507,
      "gameId": "01015089"
    },
    {
      "id": "n_d10f1dfb-af1c-4a38-a0dd-ee69aa657b67",
      "name": "中継点",
      "slug": "",
      "region": "畿内",
      "country": "01",
      "district": "01",
      "type": "5",
      "lat": 33.42716,
      "lng": 132.46446,
      "gameId": "01015090"
    },
    {
      "id": "n_39992153-74b6-409e-8d2f-64ab7d19431e",
      "name": "中継点",
      "slug": "",
      "region": "畿内",
      "country": "01",
      "district": "01",
      "type": "5",
      "lat": 33.57142,
      "lng": 132.51937,
      "gameId": "01015091"
    },
    {
      "id": "n_5abd24eb-6207-4618-b305-8dd67057c3c1",
      "name": "中継点",
      "slug": "",
      "region": "畿内",
      "country": "01",
      "district": "01",
      "type": "5",
      "lat": 33.71086,
      "lng": 132.7308,
      "gameId": "01015092"
    },
    {
      "id": "n_6d6fd9a2-2bf4-4efa-847c-8e6b47a63e5b",
      "name": "中継点",
      "slug": "",
      "region": "畿内",
      "country": "01",
      "district": "01",
      "type": "5",
      "lat": 34.85111,
      "lng": 133.85584,
      "gameId": "01015093"
    },
    {
      "id": "n_dfc07835-8cf3-466c-a4d1-1fea7638dd1b",
      "name": "中継点",
      "slug": "",
      "region": "畿内",
      "country": "01",
      "district": "01",
      "type": "5",
      "lat": 35.08857,
      "lng": 133.77472,
      "gameId": "01015094"
    },
    {
      "id": "n_4660be72-1f6b-442d-a662-9191f76a8302",
      "name": "中継点",
      "slug": "",
      "region": "畿内",
      "country": "01",
      "district": "01",
      "type": "5",
      "lat": 35.21094,
      "lng": 133.62233,
      "gameId": "01015095"
    },
    {
      "id": "n_8b6128de-5709-4385-945d-e93c88ff11e6",
      "name": "中継点",
      "slug": "",
      "region": "畿内",
      "country": "01",
      "district": "01",
      "type": "5",
      "lat": 35.33311,
      "lng": 133.44248,
      "gameId": "01015096"
    },
    {
      "id": "n_0fbcd8fd-4fc3-4e84-8414-93d272dbb456",
      "name": "中継点",
      "slug": "",
      "region": "畿内",
      "country": "01",
      "district": "01",
      "type": "5",
      "lat": 35.40812,
      "lng": 133.43424,
      "gameId": "01015097"
    },
    {
      "id": "n_886e8026-a82e-4fd8-8330-4b3100244ba7",
      "name": "中継点",
      "slug": "",
      "region": "畿内",
      "country": "01",
      "district": "01",
      "type": "5",
      "lat": 34.99633,
      "lng": 133.70051,
      "gameId": "01015098"
    },
    {
      "id": "n_8c810109-2ee0-4151-b9be-b4e312a022e0",
      "name": "中継点",
      "slug": "",
      "region": "畿内",
      "country": "01",
      "district": "01",
      "type": "5",
      "lat": 34.92094,
      "lng": 133.59617,
      "gameId": "01015099"
    },
    {
      "id": "n_f4931550-2da3-4baf-b47e-6d71c9cfc0d5",
      "name": "中継点",
      "slug": "",
      "region": "畿内",
      "country": "01",
      "district": "01",
      "type": "5",
      "lat": 34.93783,
      "lng": 133.49183,
      "gameId": "01015100"
    },
    {
      "id": "n_84f386b8-a78c-4767-9c1e-892359781b0a",
      "name": "中継点",
      "slug": "",
      "region": "畿内",
      "country": "01",
      "district": "01",
      "type": "5",
      "lat": 34.9018,
      "lng": 133.29001,
      "gameId": "01015101"
    },
    {
      "id": "n_13718623-7c7e-45ea-b7b6-30fcbbd67c7c",
      "name": "中継点",
      "slug": "",
      "region": "畿内",
      "country": "01",
      "district": "01",
      "type": "5",
      "lat": 34.85562,
      "lng": 133.07721,
      "gameId": "01015102"
    },
    {
      "id": "n_edf07d42-31bb-4d0f-b82a-e84aa2f0c7ac",
      "name": "中継点",
      "slug": "",
      "region": "畿内",
      "country": "01",
      "district": "01",
      "type": "5",
      "lat": 34.83872,
      "lng": 132.96051,
      "gameId": "01015103"
    },
    {
      "id": "n_6afdb44a-1161-4f10-9a5a-ce1a7a8e2782",
      "name": "中継点",
      "slug": "",
      "region": "畿内",
      "country": "01",
      "district": "01",
      "type": "5",
      "lat": 36.13903,
      "lng": 133.3779,
      "gameId": "01015104"
    },
    {
      "id": "n_369dc7f3-2676-4d06-a5e2-c2a089e996ad",
      "name": "中継点",
      "slug": "",
      "region": "畿内",
      "country": "01",
      "district": "01",
      "type": "5",
      "lat": 35.68646,
      "lng": 133.34633,
      "gameId": "01015105"
    },
    {
      "id": "n_acc9a332-f096-477c-9aae-73783ac678e1",
      "name": "中継点",
      "slug": "",
      "region": "畿内",
      "country": "01",
      "district": "01",
      "type": "5",
      "lat": 35.45844,
      "lng": 133.32184,
      "gameId": "01015106"
    },
    {
      "id": "n_fea066f0-f3b9-4fa9-a0c1-39ff75c0638f",
      "name": "中継点",
      "slug": "",
      "region": "畿内",
      "country": "01",
      "district": "01",
      "type": "5",
      "lat": 34.13577,
      "lng": 129.37477,
      "gameId": "01015107"
    },
    {
      "id": "n_956d6b15-6fab-4b44-ab3f-54998458c877",
      "name": "中継点",
      "slug": "",
      "region": "畿内",
      "country": "01",
      "district": "01",
      "type": "5",
      "lat": 34.00612,
      "lng": 129.5203,
      "gameId": "01015108"
    },
    {
      "id": "n_005d691e-ccc6-4cd9-985c-f36b927bbe1e",
      "name": "中継点",
      "slug": "",
      "region": "畿内",
      "country": "01",
      "district": "01",
      "type": "5",
      "lat": 33.78492,
      "lng": 129.63291,
      "gameId": "01015109"
    },
    {
      "id": "n_202a4858-8564-4e2d-94ad-d6ea4d9c6912",
      "name": "中継点",
      "slug": "",
      "region": "畿内",
      "country": "01",
      "district": "01",
      "type": "5",
      "lat": 33.70386,
      "lng": 129.64801,
      "gameId": "01015110"
    },
    {
      "id": "n_91976cb5-ada7-416b-a209-4be97309224d",
      "name": "中継点",
      "slug": "",
      "region": "畿内",
      "country": "01",
      "district": "01",
      "type": "5",
      "lat": 33.66618,
      "lng": 129.82376,
      "gameId": "01015111"
    },
    {
      "id": "n_c7bd6bd8-b4c8-4ec8-b178-79e672dc0df1",
      "name": "中継点",
      "slug": "",
      "region": "畿内",
      "country": "01",
      "district": "01",
      "type": "5",
      "lat": 33.59301,
      "lng": 129.9281,
      "gameId": "01015112"
    },
    {
      "id": "n_bb0f4e24-7b49-48d5-bcae-f1290acd8c19",
      "name": "中継点",
      "slug": "",
      "region": "畿内",
      "country": "01",
      "district": "01",
      "type": "5",
      "lat": 33.52551,
      "lng": 129.98027,
      "gameId": "01015113"
    },
    {
      "id": "n_56a262b7-e13e-40f8-b201-1137420faf5e",
      "name": "中継点",
      "slug": "",
      "region": "畿内",
      "country": "01",
      "district": "01",
      "type": "5",
      "lat": 33.44577,
      "lng": 129.9868,
      "gameId": "01015114"
    },
    {
      "id": "n_04a30f50-7053-4fba-9ef3-022a4f2efe87",
      "name": "中継点",
      "slug": "",
      "region": "畿内",
      "country": "01",
      "district": "01",
      "type": "5",
      "lat": 33.40525,
      "lng": 130.00498,
      "gameId": "01015115"
    },
    {
      "id": "n_de9b1df9-ef29-43e3-85f7-197f19f5dc39",
      "name": "中継点",
      "slug": "",
      "region": "畿内",
      "country": "01",
      "district": "01",
      "type": "5",
      "lat": 33.34334,
      "lng": 130.05166,
      "gameId": "01015116"
    },
    {
      "id": "n_a555a87f-0b5d-4c12-99fe-28404fec7075",
      "name": "中継点",
      "slug": "",
      "region": "畿内",
      "country": "01",
      "district": "01",
      "type": "5",
      "lat": 33.29859,
      "lng": 130.13953,
      "gameId": "01015117"
    },
    {
      "id": "n_0799cb89-ce22-4ec0-ab29-fd04c164ebf4",
      "name": "中継点",
      "slug": "",
      "region": "畿内",
      "country": "01",
      "district": "01",
      "type": "5",
      "lat": 33.28253,
      "lng": 130.21367,
      "gameId": "01015118"
    },
    {
      "id": "n_4e499ce0-3b44-442a-9da8-ff844e326f7f",
      "name": "中継点",
      "slug": "",
      "region": "畿内",
      "country": "01",
      "district": "01",
      "type": "5",
      "lat": 37.91283,
      "lng": 138.29288,
      "gameId": "01015119"
    },
    {
      "id": "n_95e94150-617f-4542-b58e-d30fe0f54bb3",
      "name": "中継点",
      "slug": "",
      "region": "畿内",
      "country": "01",
      "district": "01",
      "type": "5",
      "lat": 37.82504,
      "lng": 138.29288,
      "gameId": "01015120"
    },
    {
      "id": "n_a771dc08-c8ea-48e3-9735-901292abfda0",
      "name": "中継点",
      "slug": "",
      "region": "畿内",
      "country": "01",
      "district": "01",
      "type": "5",
      "lat": 37.36553,
      "lng": 138.535,
      "gameId": "01015121"
    },
    {
      "id": "n_50ee6212-0694-4561-b131-5d499abe0360",
      "name": "中継点",
      "slug": "",
      "region": "畿内",
      "country": "01",
      "district": "01",
      "type": "5",
      "lat": 37.32053,
      "lng": 138.44619,
      "gameId": "01015122"
    },
    {
      "id": "n_90ce2014-7290-437c-b467-2dcfff2326b6",
      "name": "中継点",
      "slug": "",
      "region": "畿内",
      "country": "01",
      "district": "01",
      "type": "5",
      "lat": 37.24352,
      "lng": 138.35969,
      "gameId": "01015123"
    },
    {
      "id": "n_f5c77439-b7ce-4cbc-b406-63cd50950723",
      "name": "中継点",
      "slug": "",
      "region": "畿内",
      "country": "01",
      "district": "01",
      "type": "5",
      "lat": 37.16916,
      "lng": 138.24849,
      "gameId": "01015124"
    },
    {
      "id": "n_a841bc80-1dfc-439c-8f8b-d32026d6cf41",
      "name": "中継点",
      "slug": "",
      "region": "畿内",
      "country": "01",
      "district": "01",
      "type": "5",
      "lat": 37.45111,
      "lng": 138.65256,
      "gameId": "01015125"
    },
    {
      "id": "n_29012675-4ddd-4aa7-aa66-630c152b01ea",
      "name": "中継点",
      "slug": "",
      "region": "畿内",
      "country": "01",
      "district": "01",
      "type": "5",
      "lat": 37.82297,
      "lng": 138.92444,
      "gameId": "01015126"
    },
    {
      "id": "n_e2791626-a3f4-4686-b9d7-01ed36ba89cc",
      "name": "中継点",
      "slug": "",
      "region": "畿内",
      "country": "01",
      "district": "01",
      "type": "5",
      "lat": 37.98546,
      "lng": 139.20726,
      "gameId": "01015127"
    },
    {
      "id": "n_c3ece5f0-23a9-4256-a24b-27c899e70f50",
      "name": "中継点",
      "slug": "",
      "region": "畿内",
      "country": "01",
      "district": "01",
      "type": "5",
      "lat": 38.08927,
      "lng": 139.39123,
      "gameId": "01015128"
    },
    {
      "id": "n_555ff5c8-875d-437e-9577-099109022136",
      "name": "中継点",
      "slug": "",
      "region": "畿内",
      "country": "01",
      "district": "01",
      "type": "5",
      "lat": 38.40431,
      "lng": 139.59737,
      "gameId": "01015129"
    },
    {
      "id": "n_45b990c5-bd0d-4f37-985d-46c69dae1aed",
      "name": "中継点",
      "slug": "",
      "region": "畿内",
      "country": "01",
      "district": "01",
      "type": "5",
      "lat": 38.7799,
      "lng": 139.7786,
      "gameId": "01015130"
    },
    {
      "id": "n_c3b53400-f765-4d55-9398-6717621a0fe9",
      "name": "中継点",
      "slug": "",
      "region": "畿内",
      "country": "01",
      "district": "01",
      "type": "5",
      "lat": 39.21524,
      "lng": 139.98728,
      "gameId": "01015131"
    },
    {
      "id": "n_0cf98466-e79d-4155-bf10-937faf640a8b",
      "name": "中継点",
      "slug": "",
      "region": "畿内",
      "country": "01",
      "district": "01",
      "type": "5",
      "lat": 39.53999,
      "lng": 140.07515,
      "gameId": "01015132"
    },
    {
      "id": "n_a825cee4-f24b-4485-8370-c8d1fd71dd9f",
      "name": "中継点",
      "slug": "",
      "region": "畿内",
      "country": "01",
      "district": "01",
      "type": "5",
      "lat": 39.73453,
      "lng": 140.11633,
      "gameId": "01015133"
    },
    {
      "id": "n_5f3cef31-ad82-41be-b7ec-5455e83d1d4e",
      "name": "中継点",
      "slug": "",
      "region": "畿内",
      "country": "01",
      "district": "01",
      "type": "5",
      "lat": 39.89693,
      "lng": 140.06691,
      "gameId": "01015134"
    },
    {
      "id": "n_fc31a1d7-12b0-4188-8aba-1efdc52e2d56",
      "name": "中継点",
      "slug": "",
      "region": "畿内",
      "country": "01",
      "district": "01",
      "type": "5",
      "lat": 40.66779,
      "lng": 140.45956,
      "gameId": "01015135"
    },
    {
      "id": "n_cd2e3ec4-ad9f-4515-9d23-7b71773962ed",
      "name": "中継点",
      "slug": "",
      "region": "畿内",
      "country": "01",
      "district": "01",
      "type": "5",
      "lat": 40.79264,
      "lng": 140.7616,
      "gameId": "01015136"
    },
    {
      "id": "n_40591e81-5207-4c48-ba93-71bb29745086",
      "name": "中継点",
      "slug": "",
      "region": "畿内",
      "country": "01",
      "district": "01",
      "type": "5",
      "lat": 40.90273,
      "lng": 140.96479,
      "gameId": "01015137"
    },
    {
      "id": "n_631e711d-d4eb-44ba-a6b3-1d23cad09766",
      "name": "中継点",
      "slug": "",
      "region": "畿内",
      "country": "01",
      "district": "01",
      "type": "5",
      "lat": 40.78224,
      "lng": 141.2229,
      "gameId": "01015138"
    },
    {
      "id": "n_8190915a-edc9-4a3d-96d4-50b0bb1c3327",
      "name": "中継点",
      "slug": "",
      "region": "畿内",
      "country": "01",
      "district": "01",
      "type": "5",
      "lat": 40.55314,
      "lng": 141.29703,
      "gameId": "01015139"
    },
    {
      "id": "n_63eca4a4-1484-4621-a6f1-2ef75d55b71c",
      "name": "中継点",
      "slug": "",
      "region": "畿内",
      "country": "01",
      "district": "01",
      "type": "5",
      "lat": 40.06736,
      "lng": 141.43707,
      "gameId": "01015140"
    },
    {
      "id": "n_7e5fbbdb-dbb7-4b4a-88ad-845b43df6a25",
      "name": "中継点",
      "slug": "",
      "region": "畿内",
      "country": "01",
      "district": "01",
      "type": "5",
      "lat": 39.76198,
      "lng": 141.22839,
      "gameId": "01015141"
    },
    {
      "id": "n_8e02e901-209e-456a-8e91-9c505ba8b2c4",
      "name": "中継点",
      "slug": "",
      "region": "畿内",
      "country": "01",
      "district": "01",
      "type": "5",
      "lat": 39.51881,
      "lng": 141.12405,
      "gameId": "01015142"
    },
    {
      "id": "n_fd8f2088-0810-429e-a4bc-613a4a0450b1",
      "name": "中継点",
      "slug": "",
      "region": "畿内",
      "country": "01",
      "district": "01",
      "type": "5",
      "lat": 39.12809,
      "lng": 141.10785,
      "gameId": "01015143"
    },
    {
      "id": "n_7b0445a0-238c-4cc4-bc48-2cbd982ecb27",
      "name": "中継点",
      "slug": "",
      "region": "畿内",
      "country": "01",
      "district": "01",
      "type": "5",
      "lat": 38.82055,
      "lng": 141.15177,
      "gameId": "01015144"
    },
    {
      "id": "n_6f1cc949-f34c-4ef3-899e-cef509f95be5",
      "name": "中継点",
      "slug": "",
      "region": "畿内",
      "country": "01",
      "district": "01",
      "type": "5",
      "lat": 38.58269,
      "lng": 141.04743,
      "gameId": "01015145"
    },
    {
      "id": "n_d5e3b186-3850-43b0-af71-9b00133dc556",
      "name": "中継点",
      "slug": "",
      "region": "畿内",
      "country": "01",
      "district": "01",
      "type": "5",
      "lat": 38.22333,
      "lng": 140.87445,
      "gameId": "01015146"
    },
    {
      "id": "n_da071db1-cf17-4bcc-99e0-87c359cee0ae",
      "name": "中継点",
      "slug": "",
      "region": "畿内",
      "country": "01",
      "district": "01",
      "type": "5",
      "lat": 37.7817,
      "lng": 140.89641,
      "gameId": "01015147"
    },
    {
      "id": "n_e4b4e73d-6b60-496e-b325-cf9ac8d1d15d",
      "name": "中継点",
      "slug": "",
      "region": "畿内",
      "country": "01",
      "district": "01",
      "type": "5",
      "lat": 37.45327,
      "lng": 140.94858,
      "gameId": "01015148"
    },
    {
      "id": "n_8832632e-f2ae-4fd0-9016-465e3eb18b27",
      "name": "中継点",
      "slug": "",
      "region": "畿内",
      "country": "01",
      "district": "01",
      "type": "5",
      "lat": 37.14837,
      "lng": 140.94332,
      "gameId": "01015149"
    },
    {
      "id": "n_1758cfb4-842a-45c1-8cbb-56f8e5660a41",
      "name": "中継点",
      "slug": "",
      "region": "畿内",
      "country": "01",
      "district": "01",
      "type": "5",
      "lat": 36.88007,
      "lng": 140.69538,
      "gameId": "01015150"
    },
    {
      "id": "n_372c9fe3-adc6-41c9-b69e-8451e62898d3",
      "name": "中継点",
      "slug": "",
      "region": "畿内",
      "country": "01",
      "district": "01",
      "type": "5",
      "lat": 37.30099,
      "lng": 140.27786,
      "gameId": "01015151"
    },
    {
      "id": "n_fe0713c4-ea2d-4b24-80ae-86d151488db0",
      "name": "中継点",
      "slug": "",
      "region": "畿内",
      "country": "01",
      "district": "01",
      "type": "5",
      "lat": 36.90401,
      "lng": 140.01471,
      "gameId": "01015152"
    },
    {
      "id": "n_5268ce60-25df-4788-883c-147ed47b5f90",
      "name": "中継点",
      "slug": "",
      "region": "畿内",
      "country": "01",
      "district": "01",
      "type": "5",
      "lat": 38.55464,
      "lng": 140.56668,
      "gameId": "01015153"
    },
    {
      "id": "n_eb81ecd9-12bc-4179-83d5-78fa5421cb2c",
      "name": "中継点",
      "slug": "",
      "region": "畿内",
      "country": "01",
      "district": "01",
      "type": "5",
      "lat": 38.61259,
      "lng": 140.90442,
      "gameId": "01015154"
    },
    {
      "id": "n_4c42a4aa-65cf-4000-b087-f10497bdbb8a",
      "name": "中継点",
      "slug": "",
      "region": "畿内",
      "country": "01",
      "district": "01",
      "type": "5",
      "lat": 38.89107,
      "lng": 140.31054,
      "gameId": "01015155"
    },
    {
      "id": "n_4e86b3d0-9461-403f-a761-c523902e088f",
      "name": "中継点",
      "slug": "",
      "region": "畿内",
      "country": "01",
      "district": "01",
      "type": "5",
      "lat": 39.29598,
      "lng": 140.50824,
      "gameId": "01015156"
    },
    {
      "id": "n_832d7279-f06c-4cda-ab04-e4a3d79b50bc",
      "name": "中継点",
      "slug": "",
      "region": "畿内",
      "country": "01",
      "district": "01",
      "type": "5",
      "lat": 39.50816,
      "lng": 140.45881,
      "gameId": "01015157"
    },
    {
      "id": "n_2f29b507-842c-4842-a193-a0839816eded",
      "name": "中継点",
      "slug": "",
      "region": "畿内",
      "country": "01",
      "district": "01",
      "type": "5",
      "lat": 35.30007,
      "lng": 139.9005,
      "gameId": "01015158"
    },
    {
      "id": "n_94a3e303-2f71-4b3b-8c08-39c22f3cef2e",
      "name": "中継点",
      "slug": "",
      "region": "畿内",
      "country": "01",
      "district": "01",
      "type": "5",
      "lat": 35.44301,
      "lng": 140.03134,
      "gameId": "01015159"
    },
    {
      "id": "n_c591c1c3-6f19-4310-9662-5e70a91ff097",
      "name": "中継点",
      "slug": "",
      "region": "畿内",
      "country": "01",
      "district": "01",
      "type": "5",
      "lat": 35.58829,
      "lng": 140.16589,
      "gameId": "01015160"
    },
    {
      "id": "n_9a8176eb-f526-4bf4-a545-c9dba6a6d73b",
      "name": "中継点",
      "slug": "",
      "region": "畿内",
      "country": "01",
      "district": "01",
      "type": "5",
      "lat": 35.76673,
      "lng": 140.24002,
      "gameId": "01015161"
    },
    {
      "id": "n_38d27ebf-5910-42f5-ba2e-54ef78ecd9fd",
      "name": "中継点",
      "slug": "",
      "region": "畿内",
      "country": "01",
      "district": "01",
      "type": "5",
      "lat": 35.92254,
      "lng": 140.10273,
      "gameId": "01015162"
    },
    {
      "id": "n_f9d434a0-8d45-4b3d-a3cb-98f6466bde64",
      "name": "中継点",
      "slug": "",
      "region": "畿内",
      "country": "01",
      "district": "01",
      "type": "5",
      "lat": 35.97812,
      "lng": 139.8611,
      "gameId": "01015163"
    },
    {
      "id": "n_2f39eafb-6604-4618-b225-1c8e63115592",
      "name": "中継点",
      "slug": "",
      "region": "畿内",
      "country": "01",
      "district": "01",
      "type": "5",
      "lat": 35.66641,
      "lng": 139.38607,
      "gameId": "01015164"
    },
    {
      "id": "n_fae0ed2e-74cc-4518-bab8-b3f66b1fb689",
      "name": "中継点",
      "slug": "",
      "region": "畿内",
      "country": "01",
      "district": "01",
      "type": "5",
      "lat": 35.42959,
      "lng": 139.33116,
      "gameId": "01015165"
    },
    {
      "id": "n_18aa1108-d3d3-4161-a7a7-06c06429f347",
      "name": "中継点",
      "slug": "",
      "region": "畿内",
      "country": "01",
      "district": "01",
      "type": "5",
      "lat": 35.3266,
      "lng": 138.97695,
      "gameId": "01015166"
    },
    {
      "id": "n_7653ba58-38d8-41f9-b299-344d73f50bd8",
      "name": "中継点",
      "slug": "",
      "region": "畿内",
      "country": "01",
      "district": "01",
      "type": "5",
      "lat": 35.20105,
      "lng": 138.91654,
      "gameId": "01015167"
    },
    {
      "id": "n_67d35078-f588-4d2d-a78f-bc634def169d",
      "name": "中継点",
      "slug": "",
      "region": "畿内",
      "country": "01",
      "district": "01",
      "type": "5",
      "lat": 35.14269,
      "lng": 138.88084,
      "gameId": "01015168"
    },
    {
      "id": "n_db032918-6a2e-415a-b49b-314aad7218da",
      "name": "中継点",
      "slug": "",
      "region": "畿内",
      "country": "01",
      "district": "01",
      "type": "5",
      "lat": 35.17412,
      "lng": 138.70237,
      "gameId": "01015169"
    },
    {
      "id": "n_b46434f3-0746-49c1-8e45-c74c4f75cce0",
      "name": "中継点",
      "slug": "",
      "region": "畿内",
      "country": "01",
      "district": "01",
      "type": "5",
      "lat": 35.06631,
      "lng": 138.47172,
      "gameId": "01015170"
    },
    {
      "id": "n_a7b59b52-3ff7-452d-9031-dfa85a399f1e",
      "name": "中継点",
      "slug": "",
      "region": "畿内",
      "country": "01",
      "district": "01",
      "type": "5",
      "lat": 34.85478,
      "lng": 138.26853,
      "gameId": "01015171"
    },
    {
      "id": "n_083598f1-c95b-4eaa-8e9b-6caa340681ab",
      "name": "中継点",
      "slug": "",
      "region": "畿内",
      "country": "01",
      "district": "01",
      "type": "5",
      "lat": 34.75413,
      "lng": 138.23,
      "gameId": "01015172"
    },
    {
      "id": "n_b7670066-a478-4b97-aaa6-7da6a0db7e40",
      "name": "中継点",
      "slug": "",
      "region": "畿内",
      "country": "01",
      "district": "01",
      "type": "5",
      "lat": 34.65367,
      "lng": 138.18332,
      "gameId": "01015173"
    },
    {
      "id": "n_9cafb9e7-a4e7-4c38-8deb-2738f355a616",
      "name": "中継点",
      "slug": "",
      "region": "畿内",
      "country": "01",
      "district": "01",
      "type": "5",
      "lat": 34.67682,
      "lng": 138.02406,
      "gameId": "01015174"
    },
    {
      "id": "n_04ed5803-5c78-4fee-bd64-d5efbcec3dcc",
      "name": "中継点",
      "slug": "",
      "region": "畿内",
      "country": "01",
      "district": "01",
      "type": "5",
      "lat": 34.70386,
      "lng": 137.78286,
      "gameId": "01015175"
    },
    {
      "id": "n_803c4253-c7e4-4eda-ab4f-99ed4d520a81",
      "name": "中継点",
      "slug": "",
      "region": "畿内",
      "country": "01",
      "district": "01",
      "type": "5",
      "lat": 34.6937,
      "lng": 137.62772,
      "gameId": "01015176"
    },
    {
      "id": "n_dc2a81f4-9434-44f8-b94a-c7b868adb1f9",
      "name": "中継点",
      "slug": "",
      "region": "畿内",
      "country": "01",
      "district": "01",
      "type": "5",
      "lat": 34.69935,
      "lng": 137.53162,
      "gameId": "01015177"
    },
    {
      "id": "n_595b3c5b-7bd9-49a6-9a1c-565c1326c91b",
      "name": "中継点",
      "slug": "",
      "region": "畿内",
      "country": "01",
      "district": "01",
      "type": "5",
      "lat": 34.66492,
      "lng": 137.35232,
      "gameId": "01015178"
    },
    {
      "id": "n_4e45a91e-2f7a-4a75-a01c-1b87040490bd",
      "name": "中継点",
      "slug": "",
      "region": "畿内",
      "country": "01",
      "district": "01",
      "type": "5",
      "lat": 34.61182,
      "lng": 137.17522,
      "gameId": "01015179"
    },
    {
      "id": "n_ad897dbe-4ffb-47f8-bbaa-0065b954eac7",
      "name": "中継点",
      "slug": "",
      "region": "畿内",
      "country": "01",
      "district": "01",
      "type": "5",
      "lat": 34.60391,
      "lng": 137.07911,
      "gameId": "01015180"
    },
    {
      "id": "n_07a21eb7-8d4f-4e6b-8b35-4fab9aea8abb",
      "name": "中継点",
      "slug": "",
      "region": "畿内",
      "country": "01",
      "district": "01",
      "type": "5",
      "lat": 34.97168,
      "lng": 138.84759,
      "gameId": "01015181"
    },
    {
      "id": "n_68ffc30d-7bd7-41d6-a426-2897273f68d3",
      "name": "中継点",
      "slug": "",
      "region": "畿内",
      "country": "01",
      "district": "01",
      "type": "5",
      "lat": 34.7802,
      "lng": 138.8421,
      "gameId": "01015182"
    },
    {
      "id": "n_b09ca9e0-a12f-4d35-a546-fc3af0f50da0",
      "name": "中継点",
      "slug": "",
      "region": "畿内",
      "country": "01",
      "district": "01",
      "type": "5",
      "lat": 34.67187,
      "lng": 138.86132,
      "gameId": "01015183"
    },
    {
      "id": "n_ea770511-e39d-40f9-a664-9884645f8f07",
      "name": "中継点",
      "slug": "",
      "region": "畿内",
      "country": "01",
      "district": "01",
      "type": "5",
      "lat": 34.80951,
      "lng": 138.99312,
      "gameId": "01015184"
    },
    {
      "id": "n_28540ff6-beb8-4f2d-b19c-5aa595bad790",
      "name": "中継点",
      "slug": "",
      "region": "畿内",
      "country": "01",
      "district": "01",
      "type": "5",
      "lat": 34.90865,
      "lng": 139.08647,
      "gameId": "01015185"
    },
    {
      "id": "n_2fc240d7-77bc-4d15-81e8-f4259fea04ad",
      "name": "中継点",
      "slug": "",
      "region": "畿内",
      "country": "01",
      "district": "01",
      "type": "5",
      "lat": 35.00542,
      "lng": 139.06451,
      "gameId": "01015186"
    },
    {
      "id": "n_35c1038f-a79f-4581-956e-e57cfdd04327",
      "name": "中継点",
      "slug": "",
      "region": "畿内",
      "country": "01",
      "district": "01",
      "type": "5",
      "lat": 34.99525,
      "lng": 139.87896,
      "gameId": "01015187"
    },
    {
      "id": "n_da4cb2c2-2b80-4156-adde-bece5f2b19be",
      "name": "中継点",
      "slug": "",
      "region": "畿内",
      "country": "01",
      "district": "01",
      "type": "5",
      "lat": 34.92999,
      "lng": 139.88034,
      "gameId": "01015188"
    },
    {
      "id": "n_dc383f14-7305-4af2-b60d-161459ac4db4",
      "name": "中継点",
      "slug": "",
      "region": "畿内",
      "country": "01",
      "district": "01",
      "type": "5",
      "lat": 35.02336,
      "lng": 139.96683,
      "gameId": "01015189"
    },
    {
      "id": "n_7e1961af-6dbd-4dac-869d-a09114ff4bf7",
      "name": "中継点",
      "slug": "",
      "region": "畿内",
      "country": "01",
      "district": "01",
      "type": "5",
      "lat": 35.10989,
      "lng": 140.08078,
      "gameId": "01015190"
    },
    {
      "id": "n_94f43552-6f8d-4858-aca1-49d218b6effd",
      "name": "中継点",
      "slug": "",
      "region": "畿内",
      "country": "01",
      "district": "01",
      "type": "5",
      "lat": 35.18286,
      "lng": 140.20572,
      "gameId": "01015191"
    },
    {
      "id": "n_6dfda72c-eba8-4126-aa36-1d9f2158a049",
      "name": "中継点",
      "slug": "",
      "region": "畿内",
      "country": "01",
      "district": "01",
      "type": "5",
      "lat": 35.19349,
      "lng": 140.31989,
      "gameId": "01015192"
    },
    {
      "id": "n_804b3a06-2b35-4511-bd95-d804cd4b24f3",
      "name": "中継点",
      "slug": "",
      "region": "畿内",
      "country": "01",
      "district": "01",
      "type": "5",
      "lat": 35.25349,
      "lng": 140.37893,
      "gameId": "01015193"
    },
    {
      "id": "n_e3d0272d-0715-4bfb-b8e6-ddae21d4ea95",
      "name": "中継点",
      "slug": "",
      "region": "畿内",
      "country": "01",
      "district": "01",
      "type": "5",
      "lat": 35.31513,
      "lng": 140.39334,
      "gameId": "01015194"
    },
    {
      "id": "n_730a8336-aa41-46db-87a1-9cc34302cc0b",
      "name": "中継点",
      "slug": "",
      "region": "畿内",
      "country": "01",
      "district": "01",
      "type": "5",
      "lat": 35.50982,
      "lng": 140.38503,
      "gameId": "01015195"
    },
    {
      "id": "n_5ef69173-0ee0-4954-a845-de9f33445119",
      "name": "中継点",
      "slug": "",
      "region": "畿内",
      "country": "01",
      "district": "01",
      "type": "5",
      "lat": 35.65497,
      "lng": 140.47565,
      "gameId": "01015196"
    },
    {
      "id": "n_b2352cd4-ad86-49c4-9a12-61a9cad2a727",
      "name": "中継点",
      "slug": "",
      "region": "畿内",
      "country": "01",
      "district": "01",
      "type": "5",
      "lat": 35.74194,
      "lng": 140.67334,
      "gameId": "01015197"
    },
    {
      "id": "n_65e41610-bb2e-4b95-8f3a-d4fc0eb4f9da",
      "name": "中継点",
      "slug": "",
      "region": "畿内",
      "country": "01",
      "district": "01",
      "type": "5",
      "lat": 35.82213,
      "lng": 140.73375,
      "gameId": "01015198"
    },
    {
      "id": "n_a6b3be01-690b-4a24-a09a-f2ef604ce782",
      "name": "中継点",
      "slug": "",
      "region": "畿内",
      "country": "01",
      "district": "01",
      "type": "5",
      "lat": 36.02448,
      "lng": 140.59646,
      "gameId": "01015199"
    },
    {
      "id": "n_7a7c0023-dfa2-4fb7-bdf2-5ab3cc26804a",
      "name": "中継点",
      "slug": "",
      "region": "畿内",
      "country": "01",
      "district": "01",
      "type": "5",
      "lat": 36.18422,
      "lng": 140.52782,
      "gameId": "01015200"
    },
    {
      "id": "n_16697d77-1417-4515-bc68-69b4bf5fbc78",
      "name": "中継点",
      "slug": "",
      "region": "畿内",
      "country": "01",
      "district": "01",
      "type": "5",
      "lat": 36.39006,
      "lng": 140.48663,
      "gameId": "01015201"
    },
    {
      "id": "n_b9377920-f7be-450d-b68e-0d4943d5640c",
      "name": "中継点",
      "slug": "",
      "region": "畿内",
      "country": "01",
      "district": "01",
      "type": "5",
      "lat": 36.36841,
      "lng": 138.68571,
      "gameId": "01015202"
    },
    {
      "id": "n_ae2e5698-2c06-430c-95f3-47dc0cf14f04",
      "name": "中継点",
      "slug": "",
      "region": "畿内",
      "country": "01",
      "district": "01",
      "type": "5",
      "lat": 36.39273,
      "lng": 138.41662,
      "gameId": "01015203"
    },
    {
      "id": "n_844dfd13-fea1-4442-ab7b-4d981bdd1636",
      "name": "中継点",
      "slug": "",
      "region": "畿内",
      "country": "01",
      "district": "01",
      "type": "5",
      "lat": 36.44797,
      "lng": 138.1997,
      "gameId": "01015204"
    },
    {
      "id": "n_8e377341-3d1d-40ee-a6d5-1c5dc2369e67",
      "name": "中継点",
      "slug": "",
      "region": "畿内",
      "country": "01",
      "district": "01",
      "type": "5",
      "lat": 36.52965,
      "lng": 138.12831,
      "gameId": "01015205"
    },
    {
      "id": "n_7b65bcd3-f17b-4a08-915c-313ca01b64e7",
      "name": "中継点",
      "slug": "",
      "region": "畿内",
      "country": "01",
      "district": "01",
      "type": "5",
      "lat": 36.85663,
      "lng": 138.22159,
      "gameId": "01015206"
    },
    {
      "id": "n_77cea9cb-411b-4611-a0c3-d4f826dbb534",
      "name": "中継点",
      "slug": "",
      "region": "畿内",
      "country": "01",
      "district": "01",
      "type": "5",
      "lat": 37.01576,
      "lng": 138.22434,
      "gameId": "01015207"
    },
    {
      "id": "n_ffbde4cd-dced-4f73-b638-ab973133d7a1",
      "name": "中継点",
      "slug": "",
      "region": "畿内",
      "country": "01",
      "district": "01",
      "type": "5",
      "lat": 36.76206,
      "lng": 137.37421,
      "gameId": "01015208"
    },
    {
      "id": "n_7d8f02fe-10bd-4106-ae36-5a09ccbef927",
      "name": "中継点",
      "slug": "",
      "region": "畿内",
      "country": "01",
      "district": "01",
      "type": "5",
      "lat": 36.9104,
      "lng": 137.46345,
      "gameId": "01015209"
    },
    {
      "id": "n_f55892b7-72e0-4a4d-bd91-0d2b48cebe08",
      "name": "中継点",
      "slug": "",
      "region": "畿内",
      "country": "01",
      "district": "01",
      "type": "5",
      "lat": 37.0136,
      "lng": 137.83011,
      "gameId": "01015210"
    },
    {
      "id": "n_19e1caae-7b65-46b7-9b18-37a3fdf61a3b",
      "name": "中継点",
      "slug": "",
      "region": "畿内",
      "country": "01",
      "district": "01",
      "type": "5",
      "lat": 37.09358,
      "lng": 138.04428,
      "gameId": "01015211"
    },
    {
      "id": "n_f6673546-1c2d-40cd-a74a-2bdcf74a7066",
      "name": "中継点",
      "slug": "",
      "region": "畿内",
      "country": "01",
      "district": "01",
      "type": "5",
      "lat": 36.26871,
      "lng": 137.15579,
      "gameId": "01015212"
    },
    {
      "id": "n_1fbdb012-a46d-4edc-a7d7-ce10d02d7e58",
      "name": "中継点",
      "slug": "",
      "region": "畿内",
      "country": "01",
      "district": "01",
      "type": "5",
      "lat": 36.43789,
      "lng": 137.14343,
      "gameId": "01015213"
    },
    {
      "id": "n_07dd2aba-373d-471f-93fa-7b964a97eacb",
      "name": "中継点",
      "slug": "",
      "region": "畿内",
      "country": "01",
      "district": "01",
      "type": "5",
      "lat": 36.5251,
      "lng": 137.19697,
      "gameId": "01015214"
    },
    {
      "id": "n_2fc827c3-54d9-451c-adb8-ec0fe7b62f88",
      "name": "中継点",
      "slug": "",
      "region": "畿内",
      "country": "01",
      "district": "01",
      "type": "5",
      "lat": 36.58575,
      "lng": 137.21619,
      "gameId": "01015215"
    },
    {
      "id": "n_c7cfd41b-e19d-4bde-b1db-f257fa21effd",
      "name": "中継点",
      "slug": "",
      "region": "畿内",
      "country": "01",
      "district": "01",
      "type": "5",
      "lat": 36.64857,
      "lng": 137.2107,
      "gameId": "01015216"
    },
    {
      "id": "n_4b0d8947-6dbd-4db3-a9e3-b69e5c1c85c8",
      "name": "中継点",
      "slug": "",
      "region": "畿内",
      "country": "01",
      "district": "01",
      "type": "5",
      "lat": 36.76304,
      "lng": 137.05831,
      "gameId": "01015217"
    },
    {
      "id": "n_955bac6a-b137-44e3-a5f4-5938a7d0e8f0",
      "name": "中継点",
      "slug": "",
      "region": "畿内",
      "country": "01",
      "district": "01",
      "type": "5",
      "lat": 36.69482,
      "lng": 136.92102,
      "gameId": "01015218"
    },
    {
      "id": "n_7ab00042-7a4c-47fa-816e-1ea95de0b839",
      "name": "中継点",
      "slug": "",
      "region": "畿内",
      "country": "01",
      "district": "01",
      "type": "5",
      "lat": 36.6761,
      "lng": 136.68762,
      "gameId": "01015219"
    },
    {
      "id": "n_ea531158-0d60-4426-8a1c-458115027c1a",
      "name": "中継点",
      "slug": "",
      "region": "畿内",
      "country": "01",
      "district": "01",
      "type": "5",
      "lat": 36.8367,
      "lng": 136.78098,
      "gameId": "01015220"
    },
    {
      "id": "n_03b11d40-221e-419e-8ebb-f132e6397510",
      "name": "中継点",
      "slug": "",
      "region": "畿内",
      "country": "01",
      "district": "01",
      "type": "5",
      "lat": 36.91907,
      "lng": 136.83178,
      "gameId": "01015221"
    },
    {
      "id": "n_346bf92e-9e1f-4fc1-b66f-28bd6e10b120",
      "name": "中継点",
      "slug": "",
      "region": "畿内",
      "country": "01",
      "district": "01",
      "type": "5",
      "lat": 36.93004,
      "lng": 136.9828,
      "gameId": "01015222"
    },
    {
      "id": "n_cf90b791-06d3-4fb7-97cd-251855572a04",
      "name": "中継点",
      "slug": "",
      "region": "畿内",
      "country": "01",
      "district": "01",
      "type": "5",
      "lat": 36.85538,
      "lng": 136.95534,
      "gameId": "01015223"
    },
    {
      "id": "n_1d0a81b2-a90a-4fce-bf8e-468747d81cfb",
      "name": "中継点",
      "slug": "",
      "region": "畿内",
      "country": "01",
      "district": "01",
      "type": "5",
      "lat": 36.40257,
      "lng": 136.45829,
      "gameId": "01015224"
    },
    {
      "id": "n_3ac28e9e-5478-4694-ad0e-dc2ff9cd05d3",
      "name": "中継点",
      "slug": "",
      "region": "畿内",
      "country": "01",
      "district": "01",
      "type": "5",
      "lat": 36.25214,
      "lng": 136.24275,
      "gameId": "01015225"
    },
    {
      "id": "n_87ad7ea4-5f7c-4a41-b3b9-f7e4b1206b4c",
      "name": "中継点",
      "slug": "",
      "region": "畿内",
      "country": "01",
      "district": "01",
      "type": "5",
      "lat": 36.15354,
      "lng": 136.19882,
      "gameId": "01015226"
    },
    {
      "id": "n_2381889f-f6fa-4d70-94e1-4b822d20cfca",
      "name": "中継点",
      "slug": "",
      "region": "畿内",
      "country": "01",
      "district": "01",
      "type": "5",
      "lat": 35.94151,
      "lng": 136.17685,
      "gameId": "01015227"
    },
    {
      "id": "n_dc3df6ad-9308-46b8-9204-96f090ec6194",
      "name": "中継点",
      "slug": "",
      "region": "畿内",
      "country": "01",
      "district": "01",
      "type": "5",
      "lat": 35.8492,
      "lng": 136.19744,
      "gameId": "01015228"
    },
    {
      "id": "n_3aea50ea-8d0f-4a4d-876b-96564d5ebcf2",
      "name": "中継点",
      "slug": "",
      "region": "畿内",
      "country": "01",
      "district": "01",
      "type": "5",
      "lat": 35.71554,
      "lng": 136.15076,
      "gameId": "01015229"
    },
    {
      "id": "n_5759a293-9a25-451d-a757-ae416c75577e",
      "name": "中継点",
      "slug": "",
      "region": "畿内",
      "country": "01",
      "district": "01",
      "type": "5",
      "lat": 35.63301,
      "lng": 136.06015,
      "gameId": "01015230"
    },
    {
      "id": "n_aa1ebc04-148b-42d6-9df6-f70ecfdd4b92",
      "name": "中継点",
      "slug": "",
      "region": "畿内",
      "country": "01",
      "district": "01",
      "type": "5",
      "lat": 35.53922,
      "lng": 136.12056,
      "gameId": "01015231"
    },
    {
      "id": "n_b6828f3c-bc82-4596-957c-01761e0b8793",
      "name": "中継点",
      "slug": "",
      "region": "畿内",
      "country": "01",
      "district": "01",
      "type": "5",
      "lat": 35.46657,
      "lng": 136.21804,
      "gameId": "01015232"
    },
    {
      "id": "n_1f0955c3-e227-4cf0-ab76-02f7d723dac8",
      "name": "中継点",
      "slug": "",
      "region": "畿内",
      "country": "01",
      "district": "01",
      "type": "5",
      "lat": 35.41735,
      "lng": 136.27158,
      "gameId": "01015233"
    },
    {
      "id": "n_1ef2d4ab-a395-47cb-85ed-90c97589b4d9",
      "name": "中継点",
      "slug": "",
      "region": "畿内",
      "country": "01",
      "district": "01",
      "type": "5",
      "lat": 35.24823,
      "lng": 136.27844,
      "gameId": "01015234"
    },
    {
      "id": "n_2e13a249-e188-430d-9a25-324d0d6ebbe1",
      "name": "中継点",
      "slug": "",
      "region": "畿内",
      "country": "01",
      "district": "01",
      "type": "5",
      "lat": 35.1349,
      "lng": 136.09447,
      "gameId": "01015235"
    },
    {
      "id": "n_ebfc2328-62bc-440d-ba94-f1a29021ee05",
      "name": "中継点",
      "slug": "",
      "region": "畿内",
      "country": "01",
      "district": "01",
      "type": "5",
      "lat": 35.03491,
      "lng": 135.98601,
      "gameId": "01015236"
    },
    {
      "id": "n_fbdcddbd-8300-4586-8f06-d514a69bacee",
      "name": "中継点",
      "slug": "",
      "region": "畿内",
      "country": "01",
      "district": "01",
      "type": "5",
      "lat": 34.97442,
      "lng": 135.91221,
      "gameId": "01015237"
    },
    {
      "id": "n_cf15f726-18bb-49e5-b89e-1e502f333ed3",
      "name": "中継点",
      "slug": "",
      "region": "畿内",
      "country": "01",
      "district": "01",
      "type": "5",
      "lat": 34.97695,
      "lng": 135.89539,
      "gameId": "01015238"
    },
    {
      "id": "n_bed53f78-3c0b-48c5-8604-39d0553cdb6c",
      "name": "中継点",
      "slug": "",
      "region": "畿内",
      "country": "01",
      "district": "01",
      "type": "5",
      "lat": 35.00845,
      "lng": 135.86313,
      "gameId": "01015239"
    },
    {
      "id": "n_7a42aa3f-79d2-4cb1-bc84-fcea79ce4b85",
      "name": "中継点",
      "slug": "",
      "region": "畿内",
      "country": "01",
      "district": "01",
      "type": "5",
      "lat": 34.99354,
      "lng": 135.82984,
      "gameId": "01015240"
    },
    {
      "id": "n_5d98399f-3169-4f78-b9a8-ef5e3d820e95",
      "name": "中継点",
      "slug": "",
      "region": "畿内",
      "country": "01",
      "district": "01",
      "type": "5",
      "lat": 35.01126,
      "lng": 135.78865,
      "gameId": "01015241"
    },
    {
      "id": "n_141db558-f0b2-4ce2-9afa-7bc29c618db8",
      "name": "中継点",
      "slug": "",
      "region": "畿内",
      "country": "01",
      "district": "01",
      "type": "5",
      "lat": 34.97976,
      "lng": 135.74025,
      "gameId": "01015242"
    },
    {
      "id": "n_761bec8d-b1b0-4e9e-b0fc-1723f224488c",
      "name": "中継点",
      "slug": "",
      "region": "畿内",
      "country": "01",
      "district": "01",
      "type": "5",
      "lat": 34.91376,
      "lng": 135.78627,
      "gameId": "01015243"
    },
    {
      "id": "n_25728682-ddca-4d4a-82d2-2620cade1e65",
      "name": "中継点",
      "slug": "",
      "region": "畿内",
      "country": "01",
      "district": "01",
      "type": "5",
      "lat": 34.80301,
      "lng": 135.78839,
      "gameId": "01015244"
    },
    {
      "id": "n_487f0697-51ee-460a-8625-9354ad069a36",
      "name": "中継点",
      "slug": "",
      "region": "畿内",
      "country": "01",
      "district": "01",
      "type": "5",
      "lat": 34.64954,
      "lng": 135.79937,
      "gameId": "01015245"
    },
    {
      "id": "n_3d24e5c8-238a-47d3-bbdd-2aa89885fe67",
      "name": "中継点",
      "slug": "",
      "region": "畿内",
      "country": "01",
      "district": "01",
      "type": "5",
      "lat": 34.51911,
      "lng": 136.65181,
      "gameId": "01015246"
    },
    {
      "id": "n_4339649d-a49d-428b-b4dd-100a13859349",
      "name": "中継点",
      "slug": "",
      "region": "畿内",
      "country": "01",
      "district": "01",
      "type": "5",
      "lat": 34.6491,
      "lng": 136.4802,
      "gameId": "01015247"
    },
    {
      "id": "n_77991e83-6338-45d2-9504-93a266ce2194",
      "name": "中継点",
      "slug": "",
      "region": "畿内",
      "country": "01",
      "district": "01",
      "type": "5",
      "lat": 34.86126,
      "lng": 136.56397,
      "gameId": "01015248"
    },
    {
      "id": "n_c5c3963b-e67d-4702-a450-bd0263b1afea",
      "name": "中継点",
      "slug": "",
      "region": "畿内",
      "country": "01",
      "district": "01",
      "type": "5",
      "lat": 35.02895,
      "lng": 136.63124,
      "gameId": "01015249"
    },
    {
      "id": "n_3518f8f0-faa6-444b-b1d4-f7647af51baa",
      "name": "中継点",
      "slug": "",
      "region": "畿内",
      "country": "01",
      "district": "01",
      "type": "5",
      "lat": 35.06829,
      "lng": 136.73695,
      "gameId": "01015250"
    },
    {
      "id": "n_df02fb79-e464-4c9e-bfd7-61a923fa33b8",
      "name": "中継点",
      "slug": "",
      "region": "畿内",
      "country": "01",
      "district": "01",
      "type": "5",
      "lat": 35.14242,
      "lng": 136.83443,
      "gameId": "01015251"
    },
    {
      "id": "n_aeb998da-5653-4ac7-8507-aa9e4f49f0e6",
      "name": "中継点",
      "slug": "",
      "region": "畿内",
      "country": "01",
      "district": "01",
      "type": "5",
      "lat": 35.08177,
      "lng": 136.93877,
      "gameId": "01015252"
    },
    {
      "id": "n_05d6d535-33b4-4f69-ae0c-93bb7dc20342",
      "name": "中継点",
      "slug": "",
      "region": "畿内",
      "country": "01",
      "district": "01",
      "type": "5",
      "lat": 34.87027,
      "lng": 137.29573,
      "gameId": "01015253"
    },
    {
      "id": "n_d9a40e44-ed95-41b6-abde-558cf9b76947",
      "name": "中継点",
      "slug": "",
      "region": "畿内",
      "country": "01",
      "district": "01",
      "type": "5",
      "lat": 34.75643,
      "lng": 137.37536,
      "gameId": "01015254"
    },
    {
      "id": "n_57f46f3e-e4a0-430e-9c30-59a52f42e401",
      "name": "中継点",
      "slug": "",
      "region": "畿内",
      "country": "01",
      "district": "01",
      "type": "5",
      "lat": 34.72709,
      "lng": 137.4646,
      "gameId": "01015255"
    },
    {
      "id": "n_0dad125a-2686-4823-ab64-bba7523d572f",
      "name": "中継点",
      "slug": "",
      "region": "畿内",
      "country": "01",
      "district": "01",
      "type": "5",
      "lat": 34.75079,
      "lng": 137.37536,
      "gameId": "01015256"
    },
    {
      "id": "n_89432ee3-a91a-43d4-8261-9468deb50b6b",
      "name": "中継点",
      "slug": "",
      "region": "畿内",
      "country": "01",
      "district": "01",
      "type": "5",
      "lat": 34.25282,
      "lng": 134.73871,
      "gameId": "01015257"
    },
    {
      "id": "n_560e784f-116e-43d3-befd-50c7b01288dc",
      "name": "中継点",
      "slug": "",
      "region": "畿内",
      "country": "01",
      "district": "01",
      "type": "5",
      "lat": 34.43873,
      "lng": 134.89247,
      "gameId": "01015258"
    },
    {
      "id": "n_25f3fd24-f968-4e1f-9489-f04b95449a9d",
      "name": "中継点",
      "slug": "",
      "region": "畿内",
      "country": "01",
      "district": "01",
      "type": "5",
      "lat": 34.59371,
      "lng": 135.0078,
      "gameId": "01015259"
    },
    {
      "id": "n_9ac794d6-8a45-4977-a8e5-b00158a6190b",
      "name": "中継点",
      "slug": "",
      "region": "畿内",
      "country": "01",
      "district": "01",
      "type": "5",
      "lat": 34.39909,
      "lng": 135.30297,
      "gameId": "01015260"
    },
    {
      "id": "n_736aaff4-9d61-471b-a587-f9e842bd1f13",
      "name": "中継点",
      "slug": "",
      "region": "畿内",
      "country": "01",
      "district": "01",
      "type": "5",
      "lat": 34.33109,
      "lng": 135.20824,
      "gameId": "01015261"
    },
    {
      "id": "n_e73e51ad-bf68-4cf2-8f3f-58943758b017",
      "name": "中継点",
      "slug": "",
      "region": "畿内",
      "country": "01",
      "district": "01",
      "type": "5",
      "lat": 34.30387,
      "lng": 135.10527,
      "gameId": "01015262"
    },
    {
      "id": "n_713e1eab-d07d-4eb4-8fc6-218717725c2e",
      "name": "中継点",
      "slug": "",
      "region": "畿内",
      "country": "01",
      "district": "01",
      "type": "5",
      "lat": 33.79541,
      "lng": 135.34809,
      "gameId": "01015263"
    },
    {
      "id": "n_47f451ff-1afd-4b2e-84ef-14f1ee29c16c",
      "name": "中継点",
      "slug": "",
      "region": "畿内",
      "country": "01",
      "district": "01",
      "type": "5",
      "lat": 33.7018,
      "lng": 135.43871,
      "gameId": "01015264"
    },
    {
      "id": "n_8b6e58ea-9924-42e8-b4b0-6735c2a9426e",
      "name": "中継点",
      "slug": "",
      "region": "畿内",
      "country": "01",
      "district": "01",
      "type": "5",
      "lat": 33.59208,
      "lng": 135.44694,
      "gameId": "01015265"
    },
    {
      "id": "n_48ce573e-1fd8-46fb-8e99-620374dd70bf",
      "name": "中継点",
      "slug": "",
      "region": "畿内",
      "country": "01",
      "district": "01",
      "type": "5",
      "lat": 33.52343,
      "lng": 135.60895,
      "gameId": "01015266"
    },
    {
      "id": "n_8d8a3a8a-b845-46a8-8523-d3b5a8b9c23d",
      "name": "中継点",
      "slug": "",
      "region": "畿内",
      "country": "01",
      "district": "01",
      "type": "5",
      "lat": 33.53488,
      "lng": 135.76546,
      "gameId": "01015267"
    },
    {
      "id": "n_30dfd5ec-fed4-447b-a3fc-e3b2d0ee4087",
      "name": "中継点",
      "slug": "",
      "region": "畿内",
      "country": "01",
      "district": "01",
      "type": "5",
      "lat": 33.66524,
      "lng": 135.89451,
      "gameId": "01015268"
    },
    {
      "id": "n_150ceff6-7996-4a5a-88b4-2969511f72b9",
      "name": "中継点",
      "slug": "",
      "region": "畿内",
      "country": "01",
      "district": "01",
      "type": "5",
      "lat": 33.82735,
      "lng": 135.99062,
      "gameId": "01015269"
    },
    {
      "id": "n_2819ce3c-e749-4473-91a7-262dce961f88",
      "name": "中継点",
      "slug": "",
      "region": "畿内",
      "country": "01",
      "district": "01",
      "type": "5",
      "lat": 33.96638,
      "lng": 136.06475,
      "gameId": "01015270"
    },
    {
      "id": "n_b5c08a51-2248-4dc8-9250-5884092d0bbd",
      "name": "中継点",
      "slug": "",
      "region": "畿内",
      "country": "01",
      "district": "01",
      "type": "5",
      "lat": 34.14383,
      "lng": 136.1636,
      "gameId": "01015271"
    },
    {
      "id": "n_ca32524c-2ac4-412f-907c-495057cecc6b",
      "name": "中継点",
      "slug": "",
      "region": "畿内",
      "country": "01",
      "district": "01",
      "type": "5",
      "lat": 34.21425,
      "lng": 136.25971,
      "gameId": "01015272"
    },
    {
      "id": "n_815cd8f5-ea41-45c7-b895-81e12af7db0f",
      "name": "中継点",
      "slug": "",
      "region": "畿内",
      "country": "01",
      "district": "01",
      "type": "5",
      "lat": 34.29823,
      "lng": 136.45466,
      "gameId": "01015273"
    },
    {
      "id": "n_eecc758d-454a-4989-82a3-fbaa88072b33",
      "name": "中継点",
      "slug": "",
      "region": "畿内",
      "country": "01",
      "district": "01",
      "type": "5",
      "lat": 34.38204,
      "lng": 136.6062,
      "gameId": "01015274"
    },
    {
      "id": "n_1f85e344-37ca-46c2-b2bf-2cea676780a9",
      "name": "中継点",
      "slug": "",
      "region": "畿内",
      "country": "01",
      "district": "01",
      "type": "5",
      "lat": 34.39278,
      "lng": 136.8097,
      "gameId": "01015275"
    },
    {
      "id": "n_21331203-550f-4923-a91d-b9a0ed567861",
      "name": "中継点",
      "slug": "",
      "region": "畿内",
      "country": "01",
      "district": "01",
      "type": "5",
      "lat": 34.30437,
      "lng": 136.87286,
      "gameId": "01015276"
    },
    {
      "id": "n_fcdd9f50-fe29-4f9b-b205-7f57f67a9605",
      "name": "中継点",
      "slug": "",
      "region": "畿内",
      "country": "01",
      "district": "01",
      "type": "5",
      "lat": 34.33498,
      "lng": 136.75685,
      "gameId": "01015277"
    },
    {
      "id": "n_0495f4c9-767a-4c94-9d6b-4684a3e6fccf",
      "name": "中継点",
      "slug": "",
      "region": "畿内",
      "country": "01",
      "district": "01",
      "type": "5",
      "lat": 34.36842,
      "lng": 136.67585,
      "gameId": "01015278"
    },
    {
      "id": "n_9c0407af-a1f6-40f9-9ba8-5d9032bd898d",
      "name": "中継点",
      "slug": "",
      "region": "畿内",
      "country": "01",
      "district": "01",
      "type": "5",
      "lat": 34.76475,
      "lng": 135.83201,
      "gameId": "01015279"
    },
    {
      "id": "n_a21e25d3-80a9-460b-af46-e333b8443cef",
      "name": "中継点",
      "slug": "",
      "region": "畿内",
      "country": "01",
      "district": "01",
      "type": "5",
      "lat": 34.76306,
      "lng": 135.90958,
      "gameId": "01015280"
    },
    {
      "id": "n_1178b265-871d-4a01-892c-28acdf6f8916",
      "name": "中継点",
      "slug": "",
      "region": "畿内",
      "country": "01",
      "district": "01",
      "type": "5",
      "lat": 34.76926,
      "lng": 135.99196,
      "gameId": "01015281"
    },
    {
      "id": "n_5e554ff9-a495-4f00-9e21-f3115da2e80a",
      "name": "中継点",
      "slug": "",
      "region": "畿内",
      "country": "01",
      "district": "01",
      "type": "5",
      "lat": 34.79012,
      "lng": 136.09424,
      "gameId": "01015282"
    },
    {
      "id": "n_04c05853-7097-4084-bd47-4aa8f576b0f5",
      "name": "中継点",
      "slug": "",
      "region": "畿内",
      "country": "01",
      "district": "01",
      "type": "5",
      "lat": 34.80985,
      "lng": 136.1876,
      "gameId": "01015283"
    },
    {
      "id": "n_bf59c9bd-a10f-4080-8c2c-996162ae3518",
      "name": "中継点",
      "slug": "",
      "region": "畿内",
      "country": "01",
      "district": "01",
      "type": "5",
      "lat": 34.84591,
      "lng": 136.24663,
      "gameId": "01015284"
    },
    {
      "id": "n_c2db6ea7-575a-4e4e-b507-df94466c8804",
      "name": "中継点",
      "slug": "",
      "region": "畿内",
      "country": "01",
      "district": "01",
      "type": "5",
      "lat": 34.90899,
      "lng": 136.2027,
      "gameId": "01015285"
    },
    {
      "id": "n_6e1e2a27-3e4c-4f8e-b7fc-c9f8fb81b409",
      "name": "中継点",
      "slug": "",
      "region": "畿内",
      "country": "01",
      "district": "01",
      "type": "5",
      "lat": 34.95064,
      "lng": 136.14229,
      "gameId": "01015286"
    },
    {
      "id": "n_6826d731-68fc-43a4-bdb5-c8766957d5b5",
      "name": "中継点",
      "slug": "",
      "region": "畿内",
      "country": "01",
      "district": "01",
      "type": "5",
      "lat": 35.0052,
      "lng": 136.0908,
      "gameId": "01015287"
    },
    {
      "id": "n_de2220ad-eef5-4514-ad67-3ccbe0980173",
      "name": "中継点",
      "slug": "",
      "region": "畿内",
      "country": "01",
      "district": "01",
      "type": "5",
      "lat": 35.06712,
      "lng": 136.16305,
      "gameId": "01015288"
    },
    {
      "id": "n_e67eda63-8d9d-4ae1-83ac-af5ecdb9e083",
      "name": "中継点",
      "slug": "",
      "region": "畿内",
      "country": "01",
      "district": "01",
      "type": "5",
      "lat": 35.03115,
      "lng": 136.12736,
      "gameId": "01015289"
    },
    {
      "id": "n_508213c9-e1ae-419b-9404-9d56ad83459d",
      "name": "中継点",
      "slug": "",
      "region": "畿内",
      "country": "01",
      "district": "01",
      "type": "5",
      "lat": 35.55686,
      "lng": 135.87586,
      "gameId": "01015290"
    },